[
  {
    "accuweather": "de/ammersee/82211/minute-weather-forecast/2599630",
    "district": "by",
    "dwd_warncellid": 109188000,
    "lat": 48.0,
    "lon": 11.12,
    "meteoblue_id": "herrsching-am-ammersee_deutschland_2905604",
    "meteoblue_src": "https://my.meteoblue.com/visimage/meteogram_web_hd?look=KILOMETER_PER_HOUR%2CCELSIUS%2CMILLIMETER&apikey=5838a18e295d&temperature=C&windspeed=kmh&precipitationamount=mm&winddirection=3char&city=Herrsching+am+Ammersee&iso2=de&lat=47.998901&lon=11.176800&asl=551&tz=Europe%2FBerlin&lang=de&sig=fffd5401d822b43d589ef032a694a313",
    "name": "Ammersee",
    "windguru_s": 243,
    "windguru_uid": "wg_fwdg_243_3_1589997765794"
  },
  {
    "accuweather": "de/böhmenkirch/89558/minute-weather-forecast/171896",
    "daswetter": "6823c1e09a17c26b7fa9bce8b601e68e",
    "district": "bw",
    "dwd_warncellid": 108117000,
    "lat": 48.68,
    "lon": 9.93,
    "meteoblue_id": "b%c3%b6hmenkirch_deutschland_2946950",
    "meteoblue_simple": true,
    "meteoblue_src": "https://my.meteoblue.com/visimage/meteogram_web_hd?look=KILOMETER_PER_HOUR%2CCELSIUS%2CMILLIMETER&apikey=5838a18e295d&temperature=C&windspeed=kmh&precipitationamount=mm&winddirection=3char&city=B%C3%B6hmenkirch&iso2=de&lat=48.683300&lon=9.933330&asl=693&tz=Europe%2FBerlin&lang=de&sig=a28dca9c3b23be9cc8a0d454a7555590",
    "name": "Böhmenkirch"
  },
  {
    "accuweather": "de/spitzingsee/83727/minute-weather-forecast/178049",
    "district": "by",
    "dwd_warncellid": 109182000,
    "lat": 47.67,
    "lon": 11.89,
    "meteoblue_id": "spitzingsee_deutschland_3205568",
    "meteoblue_src": "https://my.meteoblue.com/visimage/meteogram_web_hd?look=KILOMETER_PER_HOUR%2CCELSIUS%2CMILLIMETER&apikey=5838a18e295d&temperature=C&windspeed=kmh&precipitationamount=mm&winddirection=3char&city=Spitzingsee&iso2=de&lat=47.661301&lon=11.887600&asl=1089&tz=Europe%2FBerlin&lang=de&sig=2324fe8c179c06c644210dcdf795b9f4",
    "name": "Spitzingsee",
    "windguru_s": 245930,
    "windguru_uid": "wg_fwdg_245930_3_1590655757107"
  },
  {
    "accuweather": "de/eckernförde/24340/minute-weather-forecast/171578",
    "district": "sh",
    "dwd_warncellid": 101058000,
    "lat": 54.47,
    "lon": 9.83,
    "meteoblue_id": "eckernf%c3%b6rde_deutschland_2933627",
    "meteoblue_src": "https://my.meteoblue.com/visimage/meteogram_web_hd?look=KILOMETER_PER_HOUR%2CCELSIUS%2CMILLIMETER&apikey=5838a18e295d&temperature=C&windspeed=kmh&precipitationamount=mm&winddirection=3char&city=Eckernf%C3%B6rde&iso2=de&lat=54.4685&lon=9.83824&asl=4&tz=Europe%2FBerlin&lang=de&sig=803e07d8818bfeb967cf8bb57a1b3b7f",
    "name": "Eckernförde",
    "windy_waves": true
  },
  {
    "accuweather": "de/berlin/10178/minute-weather-forecast/178087",
    "district": "be",
    "dwd_warncellid": 111000000,
    "lat": 52.52,
    "lon": 13.41,
    "meteoblue_id": "berlin_deutschland_2950159",
    "meteoblue_src": "https://my.meteoblue.com/visimage/meteogram_web_hd?look=KILOMETER_PER_HOUR%2CCELSIUS%2CMILLIMETER&apikey=5838a18e295d&temperature=C&windspeed=kmh&precipitationamount=mm&winddirection=3char&city=Berlin&iso2=de&lat=52.524399&lon=13.410500&asl=74&tz=Europe%2FBerlin&lang=de&sig=746bd17297592ef3f64eed64e904a2d8",
    "name": "Berlin"
  },
  {
    "accuweather": "de/bremen/28195/minute-weather-forecast/167950",
    "district": "hb",
    "dwd_warncellid": 104011000,
    "lat": 53.08,
    "lon": 8.81,
    "meteoblue_id": "bremen_deutschland_2944388",
    "meteoblue_src": "https://my.meteoblue.com/visimage/meteogram_web_hd?look=KILOMETER_PER_HOUR%2CCELSIUS%2CMILLIMETER&apikey=5838a18e295d&temperature=C&windspeed=kmh&precipitationamount=mm&winddirection=3char&city=Bremen&iso2=de&lat=53.0758&lon=8.80717&asl=3&tz=Europe%2FBerlin&lang=de&sig=9586d131fdd3f85f45bbad488cc7aac9",
    "name": "Bremen"
  },
  {
    "accuweather": "de/dortmund/44137/minute-weather-forecast/170370",
    "district": "nw",
    "dwd_warncellid": 105913000,
    "lat": 51.51,
    "lon": 7.47,
    "meteoblue_id": "dortmund_deutschland_2935517",
    "meteoblue_src": "https://my.meteoblue.com/visimage/meteogram_web_hd?look=KILOMETER_PER_HOUR%2CCELSIUS%2CMILLIMETER&apikey=5838a18e295d&temperature=C&windspeed=kmh&precipitationamount=mm&winddirection=3char&city=Dortmund&iso2=de&lat=51.514900&lon=7.466000&asl=96&tz=Europe%2FBerlin&lang=de&sig=7bcba2c5fc2075f042405c6eca881624",
    "name": "Dortmund"
  },
  {
    "accuweather": "de/frankfurt/60311/minute-weather-forecast/168720",
    "district": "he",
    "dwd_warncellid": 106412000,
    "lat": 50.12,
    "lon": 8.68,
    "meteoblue_id": "frankfurt-am-main_deutschland_2925533",
    "meteoblue_src": "https://my.meteoblue.com/visimage/meteogram_web_hd?look=KILOMETER_PER_HOUR%2CCELSIUS%2CMILLIMETER&apikey=5838a18e295d&temperature=C&windspeed=kmh&precipitationamount=mm&winddirection=3char&city=Frankfurt+am+Main&iso2=de&lat=50.115501&lon=8.684170&asl=113&tz=Europe%2FBerlin&lang=de&sig=4277526e53a305140d6bfeab6165001f",
    "name": "Frankfurt am Main"
  },
  {
    "accuweather": "de/freiburg-im-breisgau/79098/minute-weather-forecast/167209",
    "district": "bw",
    "dwd_warncellid": 108311000,
    "lat": 47.99,
    "lon": 7.85,
    "meteoblue_id": "freiburg-im-breisgau_deutschland_2925177",
    "meteoblue_src": "https://my.meteoblue.com/visimage/meteogram_web_hd?look=KILOMETER_PER_HOUR%2CCELSIUS%2CMILLIMETER&apikey=5838a18e295d&temperature=C&windspeed=kmh&precipitationamount=mm&winddirection=3char&city=Freiburg+im+Breisgau&iso2=de&lat=47.9959&lon=7.85222&asl=278&tz=Europe%2FBerlin&lang=de&sig=993957ca86458ff6abb9e80ff07f4281",
    "name": "Freiburg im Breisgau"
  },
  {
    "accuweather": "de/geislingen-an-der-steige/73312/minute-weather-forecast/171775",
    "district": "bw",
    "dwd_warncellid": 108117000,
    "lat": 48.62,
    "lon": 9.83,
    "meteoblue_id": "geislingen-an-der-steige_deutschland_2921653",
    "meteoblue_src": "https://my.meteoblue.com/visimage/meteogram_web_hd?look=KILOMETER_PER_HOUR%2CCELSIUS%2CMILLIMETER&apikey=5838a18e295d&temperature=C&windspeed=kmh&precipitationamount=mm&winddirection=3char&city=Geislingen+an+der+Steige&iso2=de&lat=48.624199&lon=9.827360&asl=426&tz=Europe%2FBerlin&lang=de&sig=fac367a37d53be296c64678ef09ac0ab",
    "name": "Geislingen an der Steige"
  },
  {
    "accuweather": "de/göttingen/37073/minute-weather-forecast/169816",
    "district": "ni",
    "dwd_warncellid": 103159000,
    "lat": 51.54,
    "lon": 9.93,
    "meteoblue_id": "g%c3%b6ttingen_deutschland_2918632",
    "meteoblue_src": "https://my.meteoblue.com/visimage/meteogram_web_hd?look=KILOMETER_PER_HOUR%2CCELSIUS%2CMILLIMETER&apikey=5838a18e295d&temperature=C&windspeed=kmh&precipitationamount=mm&winddirection=3char&city=G%C3%B6ttingen&iso2=de&lat=51.5344&lon=9.93228&asl=153&tz=Europe%2FBerlin&lang=de&sig=e626c1b39bf05d84fb1d3d1bbaadf2a0",
    "name": "Göttingen"
  },
  {
    "accuweather": "de/hamburg/20095/minute-weather-forecast/178556",
    "district": "hh",
    "dwd_warncellid": 102000000,
    "lat": 53.55,
    "lon": 9.99,
    "meteoblue_id": "hamburg_deutschland_2911298",
    "meteoblue_src": "https://my.meteoblue.com/visimage/meteogram_web_hd?look=KILOMETER_PER_HOUR%2CCELSIUS%2CMILLIMETER&apikey=5838a18e295d&temperature=C&windspeed=kmh&precipitationamount=mm&winddirection=3char&city=Hamburg&iso2=de&lat=53.550701&lon=9.993020&asl=2&tz=Europe%2FBerlin&lang=de&sig=9da37d460e72ff65f429a0a21e07e00a",
    "name": "Hamburg"
  },
  {
    "accuweather": "de/hanover/30159/minute-weather-forecast/169824",
    "district": "ni",
    "dwd_warncellid": 103241000,
    "lat": 52.37,
    "lon": 9.73,
    "meteoblue_id": "hannover_deutschland_2910831",
    "meteoblue_src": "https://my.meteoblue.com/visimage/meteogram_web_hd?look=KILOMETER_PER_HOUR%2CCELSIUS%2CMILLIMETER&apikey=5838a18e295d&temperature=C&windspeed=kmh&precipitationamount=mm&winddirection=3char&city=Hannover&iso2=de&lat=52.3705&lon=9.73322&asl=57&tz=Europe%2FBerlin&lang=de&sig=9ce4185c6f23a375dce672a1d68df65c",
    "name": "Hannover"
  },
  {
    "accuweather": "de/immenstadt/87509/weather-forecast/167621",
    "district": "by",
    "dwd_warncellid": 109780000,
    "lat": 47.56,
    "lon": 10.22,
    "meteoblue_id": "immenstadt-im-allg%c3%a4u_deutschland_2896261",
    "meteoblue_src": "https://my.meteoblue.com/visimage/meteogram_web_hd?look=KILOMETER_PER_HOUR%2CCELSIUS%2CMILLIMETER&apikey=5838a18e295d&temperature=C&windspeed=kmh&precipitationamount=mm&winddirection=3char&city=Immenstadt+im+Allg%C3%A4u&iso2=de&lat=47.56&lon=10.2139&asl=733&tz=Europe%2FBerlin&lang=de&sig=587e316f72ad991661ca270a85749995",
    "name": "Immenstadt im Allgäu"
  },
  {
    "accuweather": "de/ingolstadt/85049/minute-weather-forecast/167555",
    "district": "by",
    "dwd_warncellid": 109161000,
    "lat": 48.77,
    "lon": 11.43,
    "meteoblue_id": "ingolstadt_deutschland_2895992",
    "meteoblue_src": "https://my.meteoblue.com/visimage/meteogram_web_hd?look=KILOMETER_PER_HOUR%2CCELSIUS%2CMILLIMETER&apikey=5838a18e295d&temperature=C&windspeed=kmh&precipitationamount=mm&winddirection=3char&city=Ingolstadt&iso2=de&lat=48.7651&lon=11.4237&asl=379&tz=Europe%2FBerlin&lang=de&sig=a19a41572fa9657137946bd967b6f824",
    "name": "Ingolstadt, Donau"
  },
  {
    "accuweather": "de/landau/76829/minute-weather-forecast/174595",
    "district": "rp",
    "dwd_warncellid": 107313000,
    "lat": 49.21,
    "lon": 8.11,
    "meteoblue_id": "landau-in-der-pfalz_deutschland_2881646",
    "meteoblue_src": "https://my.meteoblue.com/visimage/meteogram_web_hd?look=KILOMETER_PER_HOUR%2CCELSIUS%2CMILLIMETER&apikey=5838a18e295d&temperature=C&windspeed=kmh&precipitationamount=mm&winddirection=3char&city=Landau+in+der+Pfalz&iso2=de&lat=49.198399&lon=8.116920&asl=144&tz=Europe%2FBerlin&lang=de&sig=0b60c1de828eabe40de97b318fff42e5",
    "name": "Landau in der Pfalz"
  },
  {
    "accuweather": "de/leipzig/04109/minute-weather-forecast/171240",
    "district": "sn",
    "dwd_warncellid": 114713000,
    "lat": 51.34,
    "lon": 12.37,
    "meteoblue_id": "leipzig_deutschland_2879139",
    "meteoblue_src": "https://my.meteoblue.com/visimage/meteogram_web_hd?look=KILOMETER_PER_HOUR%2CCELSIUS%2CMILLIMETER&apikey=5838a18e295d&temperature=C&windspeed=kmh&precipitationamount=mm&winddirection=3char&city=Leipzig&iso2=de&lat=51.339600&lon=12.371300&asl=116&tz=Europe%2FBerlin&lang=de&sig=7f7bc3acbbd55f7b8eb5cdb79ac15c6e",
    "name": "Leipzig"
  },
  {
    "accuweather": "de/leutenbach/71397/weather-forecast/167298",
    "district": "bw",
    "dwd_warncellid": 108119000,
    "lat": 48.89,
    "lon": 9.39,
    "meteoblue_id": "leutenbach_deutschland_2878313",
    "meteoblue_src": "https://my.meteoblue.com/visimage/meteogram_web_hd?look=KILOMETER_PER_HOUR%2CCELSIUS%2CMILLIMETER&apikey=5838a18e295d&temperature=C&windspeed=kmh&precipitationamount=mm&winddirection=3char&city=Leutenbach&iso2=de&lat=48.8879&lon=9.39267&asl=278&tz=Europe%2FBerlin&lang=de&sig=5197239bc6b5253d259479b5209836c4",
    "name": "Leutenbach (Württemberg)"
  },
  {
    "accuweather": "de/munich/80331/minute-weather-forecast/178086",
    "district": "by",
    "dwd_warncellid": 109162000,
    "lat": 48.14,
    "lon": 11.58,
    "meteoblue_id": "m%c3%bcnchen_deutschland_2867714",
    "meteoblue_src": "https://my.meteoblue.com/visimage/meteogram_web_hd?look=KILOMETER_PER_HOUR%2CCELSIUS%2CMILLIMETER&apikey=5838a18e295d&temperature=C&windspeed=kmh&precipitationamount=mm&winddirection=3char&city=M%C3%BCnchen&iso2=de&lat=48.137402&lon=11.575500&asl=524&tz=Europe%2FBerlin&lang=de&sig=a5e68ab574603119132b6c5af72550e1",
    "name": "München"
  },
  {
    "accuweather": "de/nuremberg/90402/weather-forecast/167559",
    "district": "by",
    "dwd_warncellid": 109564000,
    "lat": 49.45,
    "lon": 11.07,
    "meteoblue_id": "nürnberg_deutschland_2861650",
    "meteoblue_src": "https://my.meteoblue.com/visimage/meteogram_web_hd?look=KILOMETER_PER_HOUR%2CCELSIUS%2CMILLIMETER&apikey=5838a18e295d&temperature=C&windspeed=kmh&precipitationamount=mm&winddirection=3char&city=N%C3%BCrnberg&iso2=de&lat=49.454201&lon=11.077500&asl=300&tz=Europe%2FBerlin&lang=de&sig=0b691cf83cf03eea952869b6857f8a77",
    "name": "Nürnberg"
  },
  {
    "accuweather": "de/rostock/18055/minute-weather-forecast/169581",
    "district": "mv",
    "dwd_warncellid": 113003000,
    "lat": 54.08,
    "lon": 12.1,
    "meteoblue_id": "rostock_deutschland_2844588",
    "meteoblue_src": "https://my.meteoblue.com/visimage/meteogram_web_hd?look=KILOMETER_PER_HOUR%2CCELSIUS%2CMILLIMETER&apikey=5838a18e295d&temperature=C&windspeed=kmh&precipitationamount=mm&winddirection=3char&city=Rostock&iso2=de&lat=54.0887&lon=12.1405&asl=18&tz=Europe%2FBerlin&lang=de&sig=eaddc9df7c4f86505fd53a2024f2bdbe",
    "name": "Rostock"
  },
  {
    "accuweather": "de/senftenberg/01968/minute-weather-forecast/173217",
    "district": "bb",
    "dwd_warncellid": 112066000,
    "lat": 51.52,
    "lon": 14.01,
    "meteoblue_id": "senftenberg_deutschland_2833073",
    "meteoblue_src": "https://my.meteoblue.com/visimage/meteogram_web_hd?look=KILOMETER_PER_HOUR%2CCELSIUS%2CMILLIMETER&apikey=5838a18e295d&temperature=C&windspeed=kmh&precipitationamount=mm&winddirection=3char&city=Senftenberg&iso2=de&lat=51.5252&lon=14.0016&asl=104&tz=Europe%2FBerlin&lang=de&sig=8cf90774bb3c2bb049ed8f4e481d1b66",
    "name": "Senftenberg, Niederlausitz"
  },
  {
    "accuweather": "de/stuttgart/70173/minute-weather-forecast/167220",
    "district": "bw",
    "dwd_warncellid": 108111000,
    "lat": 48.78,
    "lon": 9.18,
    "meteoblue_id": "stuttgart_deutschland_2825297",
    "meteoblue_src": "https://my.meteoblue.com/visimage/meteogram_web_hd?look=KILOMETER_PER_HOUR%2CCELSIUS%2CMILLIMETER&apikey=5838a18e295d&temperature=C&windspeed=kmh&precipitationamount=mm&winddirection=3char&city=Stuttgart&iso2=de&lat=48.782299&lon=9.177020&asl=252&tz=Europe%2FBerlin&lang=de&sig=7ae31cd04b5523e9a2244a23a80cd8d7",
    "name": "Stuttgart"
  },
  {
    "accuweather": "de/ulm/89073/minute-weather-forecast/167216",
    "district": "bw",
    "dwd_warncellid": 108421000,
    "lat": 48.4,
    "lon": 9.98,
    "meteoblue_id": "ulm_deutschland_2820256",
    "meteoblue_src": "https://my.meteoblue.com/visimage/meteogram_web_hd?look=KILOMETER_PER_HOUR%2CCELSIUS%2CMILLIMETER&apikey=5838a18e295d&temperature=C&windspeed=kmh&precipitationamount=mm&winddirection=3char&city=Ulm&iso2=de&lat=48.398399&lon=9.991550&asl=480&tz=Europe%2FBerlin&lang=de&sig=cb1bcf3809377a5a84a52273bf8c0153",
    "name": "Ulm (Donau)"
  },
  {
    "accuweather": "dk/124594/minute-weather-forecast/124594",
    "lat": 56.15,
    "lon": 10.22,
    "meteoblue_id": "Århus_dänemark_2624652",
    "meteoblue_src": "https://my.meteoblue.com/visimage/meteogram_web_hd?look=KILOMETER_PER_HOUR%2CCELSIUS%2CMILLIMETER&apikey=5838a18e295d&temperature=C&windspeed=kmh&precipitationamount=mm&winddirection=3char&city=%C3%85rhus&iso2=dk&lat=56.156700&lon=10.210800&asl=10&tz=Europe%2FCopenhagen&lang=de&sig=e5f20ffcd48cfbca5778b5c7b385e089",
    "name": "Aarhus"
  },
  {
    "accuweather": "se/lund/314778/minute-weather-forecast/314778",
    "lat": 55.7,
    "lon": 13.19,
    "meteoblue_id": "lund_schweden_2693678",
    "meteoblue_src": "https://my.meteoblue.com/visimage/meteogram_web_hd?look=KILOMETER_PER_HOUR%2CCELSIUS%2CMILLIMETER&apikey=5838a18e295d&temperature=C&windspeed=kmh&precipitationamount=mm&winddirection=3char&city=Lund&iso2=se&lat=55.705799&lon=13.193200&asl=51&tz=Europe%2FStockholm&lang=de&sig=ca9669498fcc1c1b6608bb9728a36b51",
    "name": "Lund"
  },
  {
    "lat": 50.77,
    "lon": 6.1,
    "name": "Aachen"
  },
  {
    "lat": 48.83,
    "lon": 10.1,
    "name": "Aalen (Württemberg)"
  },
  {
    "lat": 48.63,
    "lon": 8.07,
    "name": "Achern (Baden)"
  },
  {
    "lat": 53.01,
    "lon": 9.04,
    "name": "Achim bei Bremen"
  },
  {
    "lat": 52.08,
    "lon": 7.01,
    "name": "Ahaus"
  },
  {
    "lat": 51.76,
    "lon": 7.9,
    "name": "Ahlen, Westfalen"
  },
  {
    "lat": 53.68,
    "lon": 10.24,
    "name": "Ahrensburg"
  },
  {
    "lat": 50.44,
    "lon": 7.01,
    "name": "Ahrweiler"
  },
  {
    "lat": 48.47,
    "lon": 11.13,
    "name": "Aichach an der Paar"
  },
  {
    "lat": 48.22,
    "lon": 9.02,
    "name": "Albstadt (Württemberg)"
  },
  {
    "lat": 51.98,
    "lon": 9.83,
    "name": "Alfeld (Leine)"
  },
  {
    "lat": 50.73,
    "lon": 7.02,
    "name": "Alfter"
  },
  {
    "lat": 50.88,
    "lon": 6.17,
    "name": "Alsdorf, Rheinland"
  },
  {
    "lat": 52.55,
    "lon": 13.51,
    "name": "Alt-Hohenschönhausen"
  },
  {
    "lat": 51.3,
    "lon": 7.68,
    "name": "Altena, Westfalen"
  },
  {
    "lat": 50.99,
    "lon": 12.44,
    "name": "Altenburg, Thüringen"
  },
  {
    "lat": 50.71,
    "lon": 7.68,
    "name": "Altenkirchen"
  },
  {
    "lat": 52.42,
    "lon": 13.53,
    "name": "Altglienicke"
  },
  {
    "lat": 53.56,
    "lon": 9.94,
    "name": "Altona"
  },
  {
    "lat": 49.75,
    "lon": 8.14,
    "name": "Alzey-Worms"
  },
  {
    "lat": 49.48,
    "lon": 11.82,
    "name": "Amberg-Sulzbach"
  },
  {
    "lat": 49.44,
    "lon": 11.86,
    "name": "Amberg, Oberpfalz"
  },
  {
    "lat": 50.43,
    "lon": 7.4,
    "name": "Andernach"
  },
  {
    "lat": 51.62,
    "lon": 12.27,
    "name": "Anhalt-Bitterfeld"
  },
  {
    "lat": 50.57,
    "lon": 13,
    "name": "Annaberg-Buchholz"
  },
  {
    "lat": 49.3,
    "lon": 10.58,
    "name": "Ansbach, Mittelfranken"
  },
  {
    "lat": 51.02,
    "lon": 11.5,
    "name": "Apolda"
  },
  {
    "lat": 51.41,
    "lon": 8.05,
    "name": "Arnsberg, Westfalen"
  },
  {
    "lat": 50.83,
    "lon": 10.95,
    "name": "Arnstadt"
  },
  {
    "lat": 49.97,
    "lon": 9.15,
    "name": "Aschaffenburg"
  },
  {
    "lat": 51.78,
    "lon": 11.49,
    "name": "Aschersleben, Sachsen-Anhalt"
  },
  {
    "lat": 51.13,
    "lon": 7.91,
    "name": "Attendorn"
  },
  {
    "lat": 50.52,
    "lon": 12.4,
    "name": "Auerbach / Vogtland"
  },
  {
    "lat": 48.37,
    "lon": 10.88,
    "name": "Augsburg"
  },
  {
    "lat": 53.48,
    "lon": 7.52,
    "name": "Aurich, Ostfriesland"
  },
  {
    "lat": 48.95,
    "lon": 9.43,
    "name": "Backnang"
  },
  {
    "lat": 51.04,
    "lon": 8.42,
    "name": "Bad Berleburg"
  },
  {
    "lat": 49.49,
    "lon": 8.16,
    "name": "Bad Dürkheim"
  },
  {
    "lat": 51.9,
    "lon": 10.56,
    "name": "Bad Harzburg"
  },
  {
    "lat": 50.87,
    "lon": 9.7,
    "name": "Bad Hersfeld"
  },
  {
    "lat": 50.22,
    "lon": 8.62,
    "name": "Bad Homburg vor der Höhe"
  },
  {
    "lat": 50.63,
    "lon": 7.23,
    "name": "Bad Honnef"
  },
  {
    "lat": 50.2,
    "lon": 10.08,
    "name": "Bad Kissingen"
  },
  {
    "lat": 49.83,
    "lon": 7.87,
    "name": "Bad Kreuznach"
  },
  {
    "lat": 49.49,
    "lon": 9.77,
    "name": "Bad Mergentheim"
  },
  {
    "lat": 50.37,
    "lon": 8.75,
    "name": "Bad Nauheim"
  },
  {
    "lat": 50.55,
    "lon": 7.1,
    "name": "Bad Neuenahr-Ahrweiler"
  },
  {
    "lat": 52.21,
    "lon": 8.8,
    "name": "Bad Oeynhausen"
  },
  {
    "lat": 53.81,
    "lon": 10.37,
    "name": "Bad Oldesloe"
  },
  {
    "lat": 51.99,
    "lon": 9.25,
    "name": "Bad Pyrmont"
  },
  {
    "lat": 49.24,
    "lon": 9.1,
    "name": "Bad Rappenau"
  },
  {
    "lat": 52.08,
    "lon": 8.75,
    "name": "Bad Salzuflen"
  },
  {
    "lat": 50.13,
    "lon": 8.5,
    "name": "Bad Soden am Taunus"
  },
  {
    "lat": 50.18,
    "lon": 8.75,
    "name": "Bad Vilbel"
  },
  {
    "lat": 53.18,
    "lon": 8.01,
    "name": "Bad Zwischenahn"
  },
  {
    "lat": 48.75,
    "lon": 8.25,
    "name": "Baden-Baden"
  },
  {
    "lat": 50.9,
    "lon": 6.18,
    "name": "Baesweiler"
  },
  {
    "lat": 48.28,
    "lon": 8.85,
    "name": "Balingen"
  },
  {
    "lat": 49.89,
    "lon": 10.89,
    "name": "Bamberg"
  },
  {
    "lat": 52.3,
    "lon": 9.48,
    "name": "Barsinghausen"
  },
  {
    "lat": 51.25,
    "lon": 9.41,
    "name": "Baunatal"
  },
  {
    "lat": 51.18,
    "lon": 14.43,
    "name": "Bautzen"
  },
  {
    "lat": 49.95,
    "lon": 11.58,
    "name": "Bayreuth"
  },
  {
    "lat": 51.76,
    "lon": 8.04,
    "name": "Beckum, Westfalen"
  },
  {
    "lat": 51,
    "lon": 6.58,
    "name": "Bedburg, Erft"
  },
  {
    "lat": 49.68,
    "lon": 8.62,
    "name": "Bensheim"
  },
  {
    "lat": 53.48,
    "lon": 10.22,
    "name": "Bergedorf"
  },
  {
    "lat": 50.97,
    "lon": 6.65,
    "name": "Bergheim, Erft"
  },
  {
    "lat": 50.98,
    "lon": 7.13,
    "name": "Bergisch Gladbach"
  },
  {
    "lat": 51.61,
    "lon": 7.64,
    "name": "Bergkamen"
  },
  {
    "lat": 51.03,
    "lon": 7.65,
    "name": "Bergneustadt"
  },
  {
    "lat": 49.62,
    "lon": 8.68,
    "name": "Bergstraße"
  },
  {
    "lat": 52.68,
    "lon": 13.59,
    "name": "Bernau bei Berlin"
  },
  {
    "lat": 51.8,
    "lon": 11.73,
    "name": "Bernburg (Saale)"
  },
  {
    "lat": 49.93,
    "lon": 6.94,
    "name": "Bernkastel-Wittlich"
  },
  {
    "lat": 48.1,
    "lon": 9.8,
    "name": "Biberach an der Riß"
  },
  {
    "lat": 52.02,
    "lon": 8.55,
    "name": "Bielefeld"
  },
  {
    "lat": 52.51,
    "lon": 13.56,
    "name": "Biesdorf"
  },
  {
    "lat": 48.97,
    "lon": 9.13,
    "name": "Bietigheim-Bissingen"
  },
  {
    "lat": 49.97,
    "lon": 7.9,
    "name": "Bingen am Rhein"
  },
  {
    "lat": 49.72,
    "lon": 7.27,
    "name": "Birkenfeld (Nahe)"
  },
  {
    "lat": 50.04,
    "lon": 6.4,
    "name": "Bitburg-Prüm"
  },
  {
    "lat": 52.34,
    "lon": 13.41,
    "name": "Blankenfelde-Mahlow"
  },
  {
    "lat": 49.23,
    "lon": 7.25,
    "name": "Blieskastel"
  },
  {
    "lat": 48.69,
    "lon": 9.01,
    "name": "Böblingen"
  },
  {
    "lat": 51.84,
    "lon": 6.62,
    "name": "Bocholt"
  },
  {
    "lat": 51.47,
    "lon": 7.2,
    "name": "Bochum"
  },
  {
    "lat": 50.73,
    "lon": 7.1,
    "name": "Bonn"
  },
  {
    "lat": 51.85,
    "lon": 6.86,
    "name": "Borken, Westfalen"
  },
  {
    "lat": 51.12,
    "lon": 12.5,
    "name": "Borna bei Leipzig"
  },
  {
    "lat": 50.77,
    "lon": 7,
    "name": "Bornheim, Rheinland"
  },
  {
    "lat": 51.53,
    "lon": 6.94,
    "name": "Bottrop"
  },
  {
    "lat": 52.41,
    "lon": 8,
    "name": "Bramsche, Hase"
  },
  {
    "lat": 52.41,
    "lon": 12.53,
    "name": "Brandenburg an der Havel"
  },
  {
    "lat": 52.27,
    "lon": 10.53,
    "name": "Braunschweig"
  },
  {
    "lat": 53.55,
    "lon": 8.58,
    "name": "Bremerhaven"
  },
  {
    "lat": 49.04,
    "lon": 8.7,
    "name": "Bretten (Baden)"
  },
  {
    "lat": 51.4,
    "lon": 8.57,
    "name": "Brilon"
  },
  {
    "lat": 52.45,
    "lon": 13.44,
    "name": "Britz"
  },
  {
    "lat": 50.18,
    "lon": 8.92,
    "name": "Bruchköbel"
  },
  {
    "lat": 49.13,
    "lon": 8.58,
    "name": "Bruchsal"
  },
  {
    "lat": 50.83,
    "lon": 6.9,
    "name": "Brühl, Rheinland"
  },
  {
    "lat": 53.27,
    "lon": 9.88,
    "name": "Buchholz in der Nordheide"
  },
  {
    "lat": 52.28,
    "lon": 9.05,
    "name": "Bückeburg"
  },
  {
    "lat": 52.42,
    "lon": 13.43,
    "name": "Buckow"
  },
  {
    "lat": 50.3,
    "lon": 9.12,
    "name": "Büdingen, Hessen"
  },
  {
    "lat": 48.7,
    "lon": 8.15,
    "name": "Bühl (Baden)"
  },
  {
    "lat": 52.2,
    "lon": 8.58,
    "name": "Bünde"
  },
  {
    "lat": 51.55,
    "lon": 8.56,
    "name": "Büren, Westfalen"
  },
  {
    "lat": 52.27,
    "lon": 11.85,
    "name": "Burg bei Magdeburg"
  },
  {
    "lat": 52.45,
    "lon": 10.01,
    "name": "Burgdorf, Kreis Hannover"
  },
  {
    "lat": 53.16,
    "lon": 8.65,
    "name": "Burglesum"
  },
  {
    "lat": 52.53,
    "lon": 9.8,
    "name": "Burgwedel"
  },
  {
    "lat": 50.43,
    "lon": 8.67,
    "name": "Butzbach"
  },
  {
    "lat": 53.48,
    "lon": 9.71,
    "name": "Buxtehude"
  },
  {
    "lat": 48.72,
    "lon": 8.73,
    "name": "Calw"
  },
  {
    "lat": 51.56,
    "lon": 7.31,
    "name": "Castrop-Rauxel"
  },
  {
    "lat": 52.62,
    "lon": 10.06,
    "name": "Celle"
  },
  {
    "lat": 52.52,
    "lon": 13.3,
    "name": "Charlottenburg"
  },
  {
    "lat": 52.5,
    "lon": 13.3,
    "name": "Charlottenburg-Wilmersdorf"
  },
  {
    "lat": 50.83,
    "lon": 12.92,
    "name": "Chemnitz"
  },
  {
    "lat": 52.84,
    "lon": 8.05,
    "name": "Cloppenburg"
  },
  {
    "lat": 50.27,
    "lon": 10.97,
    "name": "Coburg"
  },
  {
    "lat": 50.14,
    "lon": 7.19,
    "name": "Cochem-Zell"
  },
  {
    "lat": 51.94,
    "lon": 7.17,
    "name": "Coesfeld"
  },
  {
    "lat": 51.13,
    "lon": 13.58,
    "name": "Coswig bei Dresden"
  },
  {
    "lat": 51.76,
    "lon": 14.33,
    "name": "Cottbus"
  },
  {
    "lat": 49.15,
    "lon": 10.08,
    "name": "Crailsheim"
  },
  {
    "lat": 50.82,
    "lon": 12.38,
    "name": "Crimmitschau"
  },
  {
    "lat": 53.86,
    "lon": 8.69,
    "name": "Cuxhaven"
  },
  {
    "lat": 48.27,
    "lon": 11.43,
    "name": "Dachau"
  },
  {
    "lat": 49.87,
    "lon": 8.65,
    "name": "Darmstadt"
  },
  {
    "lat": 49.85,
    "lon": 8.77,
    "name": "Darmstadt-Dieburg"
  },
  {
    "lat": 51.65,
    "lon": 7.33,
    "name": "Datteln"
  },
  {
    "lat": 48.83,
    "lon": 12.97,
    "name": "Deggendorf"
  },
  {
    "lat": 51.77,
    "lon": 8.56,
    "name": "Delbrück"
  },
  {
    "lat": 51.53,
    "lon": 12.34,
    "name": "Delitzsch"
  },
  {
    "lat": 53.05,
    "lon": 8.63,
    "name": "Delmenhorst"
  },
  {
    "lat": 51.84,
    "lon": 12.23,
    "name": "Dessau-Roßlau"
  },
  {
    "lat": 51.83,
    "lon": 12.24,
    "name": "Dessau, Anhalt"
  },
  {
    "lat": 51.94,
    "lon": 8.87,
    "name": "Detmold"
  },
  {
    "lat": 50.02,
    "lon": 8.78,
    "name": "Dietzenbach"
  },
  {
    "lat": 50.73,
    "lon": 8.28,
    "name": "Dillenburg"
  },
  {
    "lat": 49.35,
    "lon": 6.73,
    "name": "Dillingen / Saar"
  },
  {
    "lat": 51.57,
    "lon": 6.75,
    "name": "Dinslaken"
  },
  {
    "lat": 54.15,
    "lon": 9.11,
    "name": "Dithmarschen"
  },
  {
    "lat": 48.83,
    "lon": 9.07,
    "name": "Ditzingen"
  },
  {
    "lat": 51.12,
    "lon": 13.12,
    "name": "Döbeln"
  },
  {
    "lat": 48.81,
    "lon": 10.7,
    "name": "Donau-Ries"
  },
  {
    "lat": 47.95,
    "lon": 8.5,
    "name": "Donaueschingen"
  },
  {
    "lat": 49.64,
    "lon": 7.91,
    "name": "Donnersbergkreis"
  },
  {
    "lat": 51.09,
    "lon": 6.84,
    "name": "Dormagen"
  },
  {
    "lat": 51.67,
    "lon": 6.97,
    "name": "Dorsten"
  },
  {
    "lat": 50,
    "lon": 8.7,
    "name": "Dreieich"
  },
  {
    "lat": 51.05,
    "lon": 13.75,
    "name": "Dresden"
  },
  {
    "lat": 51.51,
    "lon": 10.25,
    "name": "Duderstadt, Niedersachsen"
  },
  {
    "lat": 51.44,
    "lon": 6.76,
    "name": "Duisburg"
  },
  {
    "lat": 51.83,
    "lon": 7.28,
    "name": "Dülmen"
  },
  {
    "lat": 50.8,
    "lon": 6.48,
    "name": "Düren, Rheinland"
  },
  {
    "lat": 51.22,
    "lon": 6.81,
    "name": "Düsseldorf"
  },
  {
    "lat": 52.84,
    "lon": 13.79,
    "name": "Eberswalde"
  },
  {
    "lat": 53.13,
    "lon": 7.98,
    "name": "Edewecht"
  },
  {
    "lat": 48.28,
    "lon": 9.73,
    "name": "Ehingen an der Donau"
  },
  {
    "lat": 50.56,
    "lon": 6.56,
    "name": "Ehrenfeld"
  },
  {
    "lat": 48.92,
    "lon": 11.37,
    "name": "Eichstätt"
  },
  {
    "lat": 53.57,
    "lon": 9.96,
    "name": "Eimsbüttel"
  },
  {
    "lat": 51.82,
    "lon": 9.87,
    "name": "Einbeck"
  },
  {
    "lat": 50.98,
    "lon": 10.32,
    "name": "Eisenach, Thüringen"
  },
  {
    "lat": 52.15,
    "lon": 14.63,
    "name": "Eisenhüttenstadt"
  },
  {
    "lat": 48.7,
    "lon": 9.7,
    "name": "Eislingen / Fils"
  },
  {
    "lat": 48.97,
    "lon": 10.13,
    "name": "Ellwangen (Jagst)"
  },
  {
    "lat": 53.76,
    "lon": 9.66,
    "name": "Elmshorn"
  },
  {
    "lat": 50.93,
    "lon": 6.57,
    "name": "Elsdorf, Rheinland"
  },
  {
    "lat": 53.36,
    "lon": 7.2,
    "name": "Emden, Ostfriesland"
  },
  {
    "lat": 48.12,
    "lon": 7.85,
    "name": "Emmendingen"
  },
  {
    "lat": 51.84,
    "lon": 6.25,
    "name": "Emmerich am Rhein"
  },
  {
    "lat": 52.17,
    "lon": 7.53,
    "name": "Emsdetten"
  },
  {
    "lat": 50.98,
    "lon": 7.4,
    "name": "Engelskirchen"
  },
  {
    "lat": 51.3,
    "lon": 7.36,
    "name": "Ennepetal"
  },
  {
    "lat": 51.84,
    "lon": 8.03,
    "name": "Ennigerloh"
  },
  {
    "lat": 49.14,
    "lon": 8.91,
    "name": "Eppingen"
  },
  {
    "lat": 48.3,
    "lon": 11.91,
    "name": "Erding"
  },
  {
    "lat": 50.82,
    "lon": 6.77,
    "name": "Erftstadt"
  },
  {
    "lat": 50.98,
    "lon": 11.03,
    "name": "Erfurt"
  },
  {
    "lat": 51.08,
    "lon": 6.32,
    "name": "Erkelenz"
  },
  {
    "lat": 51.22,
    "lon": 6.91,
    "name": "Erkrath"
  },
  {
    "lat": 49.6,
    "lon": 11,
    "name": "Erlangen"
  },
  {
    "lat": 50.13,
    "lon": 8.55,
    "name": "Eschborn, Taunus"
  },
  {
    "lat": 50.82,
    "lon": 6.28,
    "name": "Eschweiler, Rheinland"
  },
  {
    "lat": 52.38,
    "lon": 8.62,
    "name": "Espelkamp"
  },
  {
    "lat": 51.46,
    "lon": 7.01,
    "name": "Essen, Ruhr"
  },
  {
    "lat": 48.75,
    "lon": 9.3,
    "name": "Esslingen am Neckar"
  },
  {
    "lat": 48.95,
    "lon": 8.4,
    "name": "Ettlingen"
  },
  {
    "lat": 50.67,
    "lon": 6.78,
    "name": "Euskirchen"
  },
  {
    "lat": 52.57,
    "lon": 13.08,
    "name": "Falkensee"
  },
  {
    "lat": 48.81,
    "lon": 9.28,
    "name": "Fellbach (Württemberg)"
  },
  {
    "lat": 52.53,
    "lon": 13.47,
    "name": "Fennpfuhl"
  },
  {
    "lat": 48.67,
    "lon": 9.22,
    "name": "Filderstadt"
  },
  {
    "lat": 53.1,
    "lon": 8.79,
    "name": "Findorff"
  },
  {
    "lat": 54.78,
    "lon": 9.44,
    "name": "Flensburg"
  },
  {
    "lat": 50.02,
    "lon": 8.43,
    "name": "Flörsheim am Main"
  },
  {
    "lat": 49.72,
    "lon": 11.07,
    "name": "Forchheim, Oberfranken"
  },
  {
    "lat": 51.73,
    "lon": 14.63,
    "name": "Forst (Lausitz)"
  },
  {
    "lat": 49.54,
    "lon": 8.36,
    "name": "Frankenthal (Pfalz)"
  },
  {
    "lat": 52.34,
    "lon": 14.54,
    "name": "Frankfurt (Oder)"
  },
  {
    "lat": 50.92,
    "lon": 6.82,
    "name": "Frechen"
  },
  {
    "lat": 50.92,
    "lon": 13.37,
    "name": "Freiberg, Sachsen"
  },
  {
    "lat": 48.4,
    "lon": 11.73,
    "name": "Freising, Oberbayern"
  },
  {
    "lat": 51,
    "lon": 13.65,
    "name": "Freital"
  },
  {
    "lat": 48.47,
    "lon": 8.42,
    "name": "Freudenstadt"
  },
  {
    "lat": 50.35,
    "lon": 8.77,
    "name": "Friedberg (Hessen)"
  },
  {
    "lat": 48.35,
    "lon": 10.98,
    "name": "Friedberg, Bayern"
  },
  {
    "lat": 52.47,
    "lon": 13.33,
    "name": "Friedenau"
  },
  {
    "lat": 50.27,
    "lon": 8.65,
    "name": "Friedrichsdorf, Taunus"
  },
  {
    "lat": 52.51,
    "lon": 13.52,
    "name": "Friedrichsfelde"
  },
  {
    "lat": 47.65,
    "lon": 9.48,
    "name": "Friedrichshafen"
  },
  {
    "lat": 52.52,
    "lon": 13.45,
    "name": "Friedrichshain"
  },
  {
    "lat": 52.5,
    "lon": 13.44,
    "name": "Friedrichshain-Kreuzberg"
  },
  {
    "lat": 53.02,
    "lon": 7.86,
    "name": "Friesoythe"
  },
  {
    "lat": 51.47,
    "lon": 7.77,
    "name": "Fröndenberg / Ruhr"
  },
  {
    "lat": 50.56,
    "lon": 9.76,
    "name": "Fulda"
  },
  {
    "lat": 48.18,
    "lon": 11.25,
    "name": "Fürstenfeldbruck"
  },
  {
    "lat": 52.37,
    "lon": 14.07,
    "name": "Fürstenwalde / Spree"
  },
  {
    "lat": 49.47,
    "lon": 10.97,
    "name": "Fürth, Bayern"
  },
  {
    "lat": 48.8,
    "lon": 8.33,
    "name": "Gaggenau"
  },
  {
    "lat": 53.03,
    "lon": 8.54,
    "name": "Ganderkesee"
  },
  {
    "lat": 52.44,
    "lon": 9.61,
    "name": "Garbsen"
  },
  {
    "lat": 47.5,
    "lon": 11.1,
    "name": "Garmisch-Partenkirchen"
  },
  {
    "lat": 53.43,
    "lon": 10.37,
    "name": "Geesthacht"
  },
  {
    "lat": 50.97,
    "lon": 6.12,
    "name": "Geilenkirchen"
  },
  {
    "lat": 51.52,
    "lon": 6.33,
    "name": "Geldern"
  },
  {
    "lat": 50.2,
    "lon": 9.18,
    "name": "Gelnhausen"
  },
  {
    "lat": 51.52,
    "lon": 7.09,
    "name": "Gelsenkirchen"
  },
  {
    "lat": 52.2,
    "lon": 8.05,
    "name": "Georgsmarienhütte"
  },
  {
    "lat": 50.87,
    "lon": 12.08,
    "name": "Gera"
  },
  {
    "lat": 47.87,
    "lon": 11.47,
    "name": "Geretsried"
  },
  {
    "lat": 48.13,
    "lon": 11.37,
    "name": "Germering, Oberbayern"
  },
  {
    "lat": 49.22,
    "lon": 8.36,
    "name": "Germersheim"
  },
  {
    "lat": 48.42,
    "lon": 10.88,
    "name": "Gersthofen"
  },
  {
    "lat": 51.64,
    "lon": 8.51,
    "name": "Geseke"
  },
  {
    "lat": 52.55,
    "lon": 13.39,
    "name": "Gesundbrunnen"
  },
  {
    "lat": 51.32,
    "lon": 7.34,
    "name": "Gevelsberg"
  },
  {
    "lat": 48.62,
    "lon": 10.25,
    "name": "Giengen an der Brenz"
  },
  {
    "lat": 50.7,
    "lon": 8.8,
    "name": "Gießen"
  },
  {
    "lat": 50.58,
    "lon": 8.65,
    "name": "Gießen, Lahn"
  },
  {
    "lat": 52.48,
    "lon": 10.55,
    "name": "Gifhorn"
  },
  {
    "lat": 51.57,
    "lon": 6.99,
    "name": "Gladbeck"
  },
  {
    "lat": 50.82,
    "lon": 12.53,
    "name": "Glauchau"
  },
  {
    "lat": 51.68,
    "lon": 6.16,
    "name": "Goch"
  },
  {
    "lat": 48.7,
    "lon": 9.67,
    "name": "Göppingen"
  },
  {
    "lat": 51.15,
    "lon": 14.97,
    "name": "Görlitz, Neiße"
  },
  {
    "lat": 51.91,
    "lon": 10.45,
    "name": "Goslar"
  },
  {
    "lat": 50.95,
    "lon": 10.72,
    "name": "Gotha, Thüringen"
  },
  {
    "lat": 54.09,
    "lon": 13.39,
    "name": "Greifswald, Hansestadt"
  },
  {
    "lat": 50.66,
    "lon": 12.19,
    "name": "Greiz"
  },
  {
    "lat": 52.1,
    "lon": 7.62,
    "name": "Greven, Westfalen"
  },
  {
    "lat": 51.08,
    "lon": 6.58,
    "name": "Grevenbroich"
  },
  {
    "lat": 49.86,
    "lon": 8.58,
    "name": "Griesheim, Hessen"
  },
  {
    "lat": 52.2,
    "lon": 7.03,
    "name": "Gronau (Westfalen)"
  },
  {
    "lat": 52.43,
    "lon": 13.46,
    "name": "Gropiusstadt"
  },
  {
    "lat": 49.92,
    "lon": 8.49,
    "name": "Groß-Gerau"
  },
  {
    "lat": 49.87,
    "lon": 8.93,
    "name": "Groß-Umstadt"
  },
  {
    "lat": 51.95,
    "lon": 14.7,
    "name": "Guben"
  },
  {
    "lat": 51.03,
    "lon": 7.55,
    "name": "Gummersbach"
  },
  {
    "lat": 53.8,
    "lon": 12.19,
    "name": "Güstrow"
  },
  {
    "lat": 51.9,
    "lon": 8.39,
    "name": "Gütersloh"
  },
  {
    "lat": 51.19,
    "lon": 7.01,
    "name": "Haan, Rheinland"
  },
  {
    "lat": 51.36,
    "lon": 7.48,
    "name": "Hagen (Westfalen)"
  },
  {
    "lat": 51.89,
    "lon": 11.05,
    "name": "Halberstadt"
  },
  {
    "lat": 52.29,
    "lon": 11.42,
    "name": "Haldensleben"
  },
  {
    "lat": 51.48,
    "lon": 11.97,
    "name": "Halle (Saale)"
  },
  {
    "lat": 52.05,
    "lon": 8.33,
    "name": "Halle (Westfalen)"
  },
  {
    "lat": 51.74,
    "lon": 7.18,
    "name": "Haltern am See"
  },
  {
    "lat": 53.55,
    "lon": 9.99,
    "name": "Hamburg-Mitte"
  },
  {
    "lat": 53.62,
    "lon": 9.99,
    "name": "Hamburg-Nord"
  },
  {
    "lat": 52.11,
    "lon": 9.37,
    "name": "Hameln"
  },
  {
    "lat": 52.09,
    "lon": 9.39,
    "name": "Hameln-Pyrmont"
  },
  {
    "lat": 51.67,
    "lon": 7.82,
    "name": "Hamm (Westfalen)"
  },
  {
    "lat": 51.73,
    "lon": 6.6,
    "name": "Hamminkeln"
  },
  {
    "lat": 50.13,
    "lon": 8.92,
    "name": "Hanau"
  },
  {
    "lat": 51.42,
    "lon": 9.66,
    "name": "Hann. Münden"
  },
  {
    "lat": 52.85,
    "lon": 11.17,
    "name": "Hansestadt Salzwedel"
  },
  {
    "lat": 54.3,
    "lon": 13.09,
    "name": "Hansestadt Stralsund"
  },
  {
    "lat": 53.46,
    "lon": 9.98,
    "name": "Harburg"
  },
  {
    "lat": 52.79,
    "lon": 7.24,
    "name": "Haren (Ems)"
  },
  {
    "lat": 51.96,
    "lon": 8.23,
    "name": "Harsewinkel"
  },
  {
    "lat": 49.36,
    "lon": 8.26,
    "name": "Haßloch, Pfalz"
  },
  {
    "lat": 50.07,
    "lon": 8.47,
    "name": "Hattersheim am Main"
  },
  {
    "lat": 51.4,
    "lon": 7.19,
    "name": "Hattingen an der Ruhr"
  },
  {
    "lat": 52.61,
    "lon": 12.67,
    "name": "Havelland"
  },
  {
    "lat": 54.2,
    "lon": 9.09,
    "name": "Heide / Holstein"
  },
  {
    "lat": 49.41,
    "lon": 8.69,
    "name": "Heidelberg"
  },
  {
    "lat": 48.68,
    "lon": 10.15,
    "name": "Heidenheim an der Brenz"
  },
  {
    "lat": 49.14,
    "lon": 9.22,
    "name": "Heilbronn (Neckar)"
  },
  {
    "lat": 51.33,
    "lon": 6.97,
    "name": "Heiligenhaus bei Velbert"
  },
  {
    "lat": 51.07,
    "lon": 6.08,
    "name": "Heinsberg, Rheinland"
  },
  {
    "lat": 52.54,
    "lon": 13.59,
    "name": "Hellersdorf"
  },
  {
    "lat": 52.23,
    "lon": 11.01,
    "name": "Helmstedt"
  },
  {
    "lat": 51.38,
    "lon": 7.77,
    "name": "Hemer"
  },
  {
    "lat": 50.78,
    "lon": 7.28,
    "name": "Hennef (Sieg)"
  },
  {
    "lat": 52.63,
    "lon": 13.2,
    "name": "Hennigsdorf"
  },
  {
    "lat": 53.79,
    "lon": 9.98,
    "name": "Henstedt-Ulzburg"
  },
  {
    "lat": 49.64,
    "lon": 8.64,
    "name": "Heppenheim (Bergstraße)"
  },
  {
    "lat": 50.68,
    "lon": 8.32,
    "name": "Herborn, Hessen"
  },
  {
    "lat": 51.4,
    "lon": 7.43,
    "name": "Herdecke an der Ruhr"
  },
  {
    "lat": 52.12,
    "lon": 8.68,
    "name": "Herford"
  },
  {
    "lat": 51.54,
    "lon": 7.2,
    "name": "Herne, Westfalen"
  },
  {
    "lat": 48.6,
    "lon": 8.87,
    "name": "Herrenberg (im Gäu)"
  },
  {
    "lat": 50.89,
    "lon": 9.78,
    "name": "Hersfeld-Rotenburg"
  },
  {
    "lat": 51.6,
    "lon": 7.14,
    "name": "Herten, Westfalen"
  },
  {
    "lat": 49.55,
    "lon": 10.88,
    "name": "Herzogenaurach"
  },
  {
    "lat": 50.87,
    "lon": 6.1,
    "name": "Herzogenrath"
  },
  {
    "lat": 53.6,
    "lon": 10.59,
    "name": "Herzogtum Lauenburg"
  },
  {
    "lat": 49.35,
    "lon": 6.93,
    "name": "Heusweiler"
  },
  {
    "lat": 52.17,
    "lon": 8.63,
    "name": "Hiddenhausen"
  },
  {
    "lat": 51.17,
    "lon": 6.94,
    "name": "Hilden"
  },
  {
    "lat": 52.14,
    "lon": 9.97,
    "name": "Hildesheim"
  },
  {
    "lat": 50.24,
    "lon": 8.51,
    "name": "Hochtaunuskreis"
  },
  {
    "lat": 49.32,
    "lon": 8.55,
    "name": "Hockenheim"
  },
  {
    "lat": 50.32,
    "lon": 11.92,
    "name": "Hof an der Saale"
  },
  {
    "lat": 50.08,
    "lon": 8.45,
    "name": "Hofheim am Taunus"
  },
  {
    "lat": 52.67,
    "lon": 13.28,
    "name": "Hohen Neuendorf"
  },
  {
    "lat": 51.83,
    "lon": 9.46,
    "name": "Holzminden"
  },
  {
    "lat": 49.32,
    "lon": 7.33,
    "name": "Homburg (Saar)"
  },
  {
    "lat": 48.43,
    "lon": 8.68,
    "name": "Horb am Neckar"
  },
  {
    "lat": 51.78,
    "lon": 9.38,
    "name": "Höxter"
  },
  {
    "lat": 51.44,
    "lon": 14.25,
    "name": "Hoyerswerda"
  },
  {
    "lat": 51.05,
    "lon": 6.22,
    "name": "Hückelhoven"
  },
  {
    "lat": 50.87,
    "lon": 6.87,
    "name": "Hürth, Rheinland"
  },
  {
    "lat": 54.49,
    "lon": 9.05,
    "name": "Husum, Nordsee"
  },
  {
    "lat": 52.28,
    "lon": 7.72,
    "name": "Ibbenbüren"
  },
  {
    "lat": 49.7,
    "lon": 7.3,
    "name": "Idar-Oberstein"
  },
  {
    "lat": 50.23,
    "lon": 8.27,
    "name": "Idstein"
  },
  {
    "lat": 50.68,
    "lon": 10.9,
    "name": "Ilmenau, Thüringen"
  },
  {
    "lat": 49.97,
    "lon": 8.05,
    "name": "Ingelheim am Rhein"
  },
  {
    "lat": 50.93,
    "lon": 6.95,
    "name": "Innenstadt"
  },
  {
    "lat": 51.37,
    "lon": 7.67,
    "name": "Iserlohn"
  },
  {
    "lat": 52.48,
    "lon": 9.8,
    "name": "Isernhagen"
  },
  {
    "lat": 53.93,
    "lon": 9.51,
    "name": "Itzehoe"
  },
  {
    "lat": 50.93,
    "lon": 11.58,
    "name": "Jena"
  },
  {
    "lat": 51.1,
    "lon": 6.5,
    "name": "Jüchen"
  },
  {
    "lat": 50.93,
    "lon": 6.37,
    "name": "Jülich"
  },
  {
    "lat": 51.22,
    "lon": 6.62,
    "name": "Kaarst"
  },
  {
    "lat": 49.45,
    "lon": 7.75,
    "name": "Kaiserslautern"
  },
  {
    "lat": 51.59,
    "lon": 7.66,
    "name": "Kamen, Westfalen"
  },
  {
    "lat": 51.5,
    "lon": 6.54,
    "name": "Kamp-Lintfort"
  },
  {
    "lat": 50.23,
    "lon": 8.77,
    "name": "Karben"
  },
  {
    "lat": 52.48,
    "lon": 13.53,
    "name": "Karlshorst"
  },
  {
    "lat": 49,
    "lon": 8.39,
    "name": "Karlsruhe"
  },
  {
    "lat": 49,
    "lon": 8.39,
    "name": "Karlsruhe (Baden)"
  },
  {
    "lat": 51.32,
    "lon": 9.49,
    "name": "Kassel"
  },
  {
    "lat": 51.32,
    "lon": 9.49,
    "name": "Kassel, Hessen"
  },
  {
    "lat": 47.88,
    "lon": 10.62,
    "name": "Kaufbeuren"
  },
  {
    "lat": 48.57,
    "lon": 7.82,
    "name": "Kehl (Rhein)"
  },
  {
    "lat": 50.13,
    "lon": 8.45,
    "name": "Kelkheim (Taunus)"
  },
  {
    "lat": 51.37,
    "lon": 6.42,
    "name": "Kempen, Niederrhein"
  },
  {
    "lat": 47.72,
    "lon": 10.32,
    "name": "Kempten (Allgäu)"
  },
  {
    "lat": 50.87,
    "lon": 6.7,
    "name": "Kerpen, Rheinland"
  },
  {
    "lat": 51.58,
    "lon": 6.25,
    "name": "Kevelaer"
  },
  {
    "lat": 54.32,
    "lon": 10.14,
    "name": "Kiel"
  },
  {
    "lat": 48.65,
    "lon": 9.45,
    "name": "Kirchheim unter Teck"
  },
  {
    "lat": 49.73,
    "lon": 10.17,
    "name": "Kitzingen"
  },
  {
    "lat": 51.79,
    "lon": 6.13,
    "name": "Kleve, Niederrhein"
  },
  {
    "lat": 50.35,
    "lon": 7.6,
    "name": "Koblenz am Rhein"
  },
  {
    "lat": 50.93,
    "lon": 6.95,
    "name": "Köln"
  },
  {
    "lat": 52.3,
    "lon": 13.62,
    "name": "Königs Wusterhausen"
  },
  {
    "lat": 48.27,
    "lon": 10.88,
    "name": "Königsbrunn bei Augsburg"
  },
  {
    "lat": 50.68,
    "lon": 7.18,
    "name": "Königswinter"
  },
  {
    "lat": 47.66,
    "lon": 9.18,
    "name": "Konstanz"
  },
  {
    "lat": 52.45,
    "lon": 13.58,
    "name": "Köpenick"
  },
  {
    "lat": 51.28,
    "lon": 8.87,
    "name": "Korbach"
  },
  {
    "lat": 48.87,
    "lon": 9.18,
    "name": "Kornwestheim"
  },
  {
    "lat": 51.19,
    "lon": 6.52,
    "name": "Korschenbroich"
  },
  {
    "lat": 51.75,
    "lon": 11.98,
    "name": "Köthen (Anhalt)"
  },
  {
    "lat": 51.34,
    "lon": 6.59,
    "name": "Krefeld"
  },
  {
    "lat": 52.49,
    "lon": 13.38,
    "name": "Kreuzberg"
  },
  {
    "lat": 50.97,
    "lon": 7.98,
    "name": "Kreuztal, Westfalen"
  },
  {
    "lat": 50.1,
    "lon": 11.45,
    "name": "Kulmbach"
  },
  {
    "lat": 51.05,
    "lon": 7.27,
    "name": "Kürten"
  },
  {
    "lat": 49.56,
    "lon": 7.48,
    "name": "Kusel"
  },
  {
    "lat": 52.31,
    "lon": 9.81,
    "name": "Laatzen bei Hannover"
  },
  {
    "lat": 51.99,
    "lon": 8.8,
    "name": "Lage, Lippe"
  },
  {
    "lat": 50.66,
    "lon": 8.38,
    "name": "Lahn-Dill-Kreis"
  },
  {
    "lat": 48.35,
    "lon": 7.87,
    "name": "Lahr / Schwarzwald"
  },
  {
    "lat": 49.6,
    "lon": 8.47,
    "name": "Lampertheim, Hessen"
  },
  {
    "lat": 52.32,
    "lon": 11.54,
    "name": "Landkreis Börde"
  },
  {
    "lat": 48.05,
    "lon": 10.87,
    "name": "Landsberg am Lech"
  },
  {
    "lat": 48.54,
    "lon": 12.15,
    "name": "Landshut, Isar"
  },
  {
    "lat": 49.99,
    "lon": 8.67,
    "name": "Langen (Hessen)"
  },
  {
    "lat": 51.1,
    "lon": 6.95,
    "name": "Langenfeld (Rheinland)"
  },
  {
    "lat": 52.45,
    "lon": 9.74,
    "name": "Langenhagen, Hannover"
  },
  {
    "lat": 52.43,
    "lon": 13.35,
    "name": "Lankwitz"
  },
  {
    "lat": 49.51,
    "lon": 11.28,
    "name": "Lauf an der Pegnitz"
  },
  {
    "lat": 49.4,
    "lon": 6.92,
    "name": "Lebach"
  },
  {
    "lat": 53.24,
    "lon": 7.47,
    "name": "Leer (Ostfriesland)"
  },
  {
    "lat": 52.38,
    "lon": 9.98,
    "name": "Lehrte bei Hannover"
  },
  {
    "lat": 51.12,
    "lon": 7.02,
    "name": "Leichlingen (Rheinland)"
  },
  {
    "lat": 49.35,
    "lon": 8.69,
    "name": "Leimen (Baden)"
  },
  {
    "lat": 51.39,
    "lon": 10.32,
    "name": "Leinefelde-Worbis"
  },
  {
    "lat": 48.7,
    "lon": 9.15,
    "name": "Leinfelden-Echterdingen"
  },
  {
    "lat": 52.03,
    "lon": 8.9,
    "name": "Lemgo"
  },
  {
    "lat": 52.18,
    "lon": 7.86,
    "name": "Lengerich, Westfalen"
  },
  {
    "lat": 51.1,
    "lon": 8.07,
    "name": "Lennestadt"
  },
  {
    "lat": 48.8,
    "lon": 9.02,
    "name": "Leonberg (Württemberg)"
  },
  {
    "lat": 47.83,
    "lon": 10.02,
    "name": "Leutkirch im Allgäu"
  },
  {
    "lat": 51.05,
    "lon": 7.02,
    "name": "Leverkusen"
  },
  {
    "lat": 52.51,
    "lon": 13.5,
    "name": "Lichtenberg"
  },
  {
    "lat": 50.15,
    "lon": 11.06,
    "name": "Lichtenfels, Bayern"
  },
  {
    "lat": 52.39,
    "lon": 13.41,
    "name": "Lichtenrade"
  },
  {
    "lat": 52.43,
    "lon": 13.32,
    "name": "Lichterfelde"
  },
  {
    "lat": 50.87,
    "lon": 12.75,
    "name": "Limbach-Oberfrohna"
  },
  {
    "lat": 50.38,
    "lon": 8.05,
    "name": "Limburg an der Lahn"
  },
  {
    "lat": 50.44,
    "lon": 8.17,
    "name": "Limburg-Weilburg"
  },
  {
    "lat": 47.55,
    "lon": 9.68,
    "name": "Lindau (Bodensee)"
  },
  {
    "lat": 50.93,
    "lon": 6.8,
    "name": "Lindenthal"
  },
  {
    "lat": 51.02,
    "lon": 7.38,
    "name": "Lindlar"
  },
  {
    "lat": 52.52,
    "lon": 7.32,
    "name": "Lingen (Ems)"
  },
  {
    "lat": 51.67,
    "lon": 8.34,
    "name": "Lippstadt"
  },
  {
    "lat": 50.83,
    "lon": 7.22,
    "name": "Lohmar, Rheinland"
  },
  {
    "lat": 52.19,
    "lon": 8.72,
    "name": "Löhne"
  },
  {
    "lat": 52.67,
    "lon": 8.23,
    "name": "Lohne (Oldenburg)"
  },
  {
    "lat": 47.62,
    "lon": 7.67,
    "name": "Lörrach"
  },
  {
    "lat": 52.31,
    "lon": 8.62,
    "name": "Lübbecke, Westfalen"
  },
  {
    "lat": 53.87,
    "lon": 10.69,
    "name": "Lübeck"
  },
  {
    "lat": 52.09,
    "lon": 13.16,
    "name": "Luckenwalde"
  },
  {
    "lat": 51.22,
    "lon": 7.63,
    "name": "Lüdenscheid"
  },
  {
    "lat": 51.77,
    "lon": 7.45,
    "name": "Lüdinghausen"
  },
  {
    "lat": 48.9,
    "lon": 9.18,
    "name": "Ludwigsburg (Württemberg)"
  },
  {
    "lat": 52.3,
    "lon": 13.26,
    "name": "Ludwigsfelde"
  },
  {
    "lat": 49.48,
    "lon": 8.44,
    "name": "Ludwigshafen am Rhein"
  },
  {
    "lat": 53.25,
    "lon": 10.41,
    "name": "Lüneburg"
  },
  {
    "lat": 51.61,
    "lon": 7.53,
    "name": "Lünen"
  },
  {
    "lat": 51.52,
    "lon": 11.56,
    "name": "Lutherstadt Eisleben"
  },
  {
    "lat": 51.87,
    "lon": 12.63,
    "name": "Lutherstadt Wittenberg"
  },
  {
    "lat": 52.13,
    "lon": 11.63,
    "name": "Magdeburg"
  },
  {
    "lat": 52.5,
    "lon": 13.61,
    "name": "Mahlsdorf"
  },
  {
    "lat": 50.21,
    "lon": 9.15,
    "name": "Main-Kinzig-Kreis"
  },
  {
    "lat": 50.1,
    "lon": 8.47,
    "name": "Main-Taunus-Kreis"
  },
  {
    "lat": 50.15,
    "lon": 8.83,
    "name": "Maintal"
  },
  {
    "lat": 50,
    "lon": 8.27,
    "name": "Mainz"
  },
  {
    "lat": 49.9,
    "lon": 8.11,
    "name": "Mainz-Bingen"
  },
  {
    "lat": 49.5,
    "lon": 8.48,
    "name": "Mannheim"
  },
  {
    "lat": 50.82,
    "lon": 8.77,
    "name": "Marburg / Lahn"
  },
  {
    "lat": 50.83,
    "lon": 8.73,
    "name": "Marburg-Biedenkopf"
  },
  {
    "lat": 52.43,
    "lon": 13.38,
    "name": "Mariendorf"
  },
  {
    "lat": 52.41,
    "lon": 13.37,
    "name": "Marienfelde"
  },
  {
    "lat": 52.6,
    "lon": 13.36,
    "name": "Märkisches Viertel"
  },
  {
    "lat": 51.27,
    "lon": 12.37,
    "name": "Markkleeberg"
  },
  {
    "lat": 51.66,
    "lon": 7.11,
    "name": "Marl, Westfalen"
  },
  {
    "lat": 51.46,
    "lon": 8.85,
    "name": "Marsberg, Sauerland"
  },
  {
    "lat": 52.55,
    "lon": 13.55,
    "name": "Marzahn"
  },
  {
    "lat": 52.54,
    "lon": 13.58,
    "name": "Marzahn-Hellersdorf"
  },
  {
    "lat": 50.33,
    "lon": 7.32,
    "name": "Mayen-Koblenz"
  },
  {
    "lat": 50.59,
    "lon": 6.65,
    "name": "Mechernich"
  },
  {
    "lat": 50.63,
    "lon": 7.02,
    "name": "Meckenheim, Rheinland"
  },
  {
    "lat": 51.25,
    "lon": 6.69,
    "name": "Meerbusch"
  },
  {
    "lat": 51.11,
    "lon": 7.65,
    "name": "Meinerzhagen"
  },
  {
    "lat": 50.57,
    "lon": 10.42,
    "name": "Meiningen"
  },
  {
    "lat": 51.16,
    "lon": 13.48,
    "name": "Meißen, Sachsen"
  },
  {
    "lat": 52.2,
    "lon": 8.34,
    "name": "Melle, Wiehengeb"
  },
  {
    "lat": 47.98,
    "lon": 10.17,
    "name": "Memmingen"
  },
  {
    "lat": 51.44,
    "lon": 7.8,
    "name": "Menden (Sauerland)"
  },
  {
    "lat": 52.69,
    "lon": 7.29,
    "name": "Meppen"
  },
  {
    "lat": 51.36,
    "lon": 11.99,
    "name": "Merseburg (Saale)"
  },
  {
    "lat": 49.45,
    "lon": 6.63,
    "name": "Merzig (Saar)"
  },
  {
    "lat": 51.35,
    "lon": 8.29,
    "name": "Meschede"
  },
  {
    "lat": 51.25,
    "lon": 6.97,
    "name": "Mettmann"
  },
  {
    "lat": 48.53,
    "lon": 9.27,
    "name": "Metzingen (Württemberg)"
  },
  {
    "lat": 52.3,
    "lon": 8.89,
    "name": "Minden, Westfalen"
  },
  {
    "lat": 52.52,
    "lon": 13.42,
    "name": "Mitte"
  },
  {
    "lat": 52.53,
    "lon": 13.34,
    "name": "Moabit"
  },
  {
    "lat": 51.45,
    "lon": 6.64,
    "name": "Moers"
  },
  {
    "lat": 51.18,
    "lon": 6.44,
    "name": "Mönchengladbach"
  },
  {
    "lat": 51.1,
    "lon": 6.89,
    "name": "Monheim am Rhein"
  },
  {
    "lat": 53.32,
    "lon": 7.42,
    "name": "Moormerland"
  },
  {
    "lat": 49.99,
    "lon": 8.58,
    "name": "Mörfelden-Walldorf"
  },
  {
    "lat": 49.35,
    "lon": 9.14,
    "name": "Mosbach (Baden)"
  },
  {
    "lat": 48.95,
    "lon": 8.83,
    "name": "Mühlacker"
  },
  {
    "lat": 51.21,
    "lon": 10.46,
    "name": "Mühlhausen / Thüringen"
  },
  {
    "lat": 50.12,
    "lon": 8.83,
    "name": "Mühlheim am Main"
  },
  {
    "lat": 51.43,
    "lon": 6.88,
    "name": "Mülheim an der Ruhr"
  },
  {
    "lat": 51.95,
    "lon": 7.63,
    "name": "Münster, Westfalen"
  },
  {
    "lat": 48.55,
    "lon": 8.72,
    "name": "Nagold"
  },
  {
    "lat": 51.15,
    "lon": 11.8,
    "name": "Naumburg (Saale)"
  },
  {
    "lat": 49.19,
    "lon": 9.23,
    "name": "Neckarsulm"
  },
  {
    "lat": 50.92,
    "lon": 8.1,
    "name": "Netphen"
  },
  {
    "lat": 51.31,
    "lon": 6.28,
    "name": "Nettetal"
  },
  {
    "lat": 53.46,
    "lon": 9.8,
    "name": "Neu Wulmstorf, Niederelbe"
  },
  {
    "lat": 52.56,
    "lon": 13.51,
    "name": "Neu-Hohenschönhausen"
  },
  {
    "lat": 50.05,
    "lon": 8.7,
    "name": "Neu-Isenburg"
  },
  {
    "lat": 48.4,
    "lon": 10.02,
    "name": "Neu-Ulm"
  },
  {
    "lat": 53.57,
    "lon": 13.27,
    "name": "Neubrandenburg, Mecklenburg"
  },
  {
    "lat": 48.73,
    "lon": 11.18,
    "name": "Neuburg an der Donau"
  },
  {
    "lat": 51.44,
    "lon": 6.55,
    "name": "Neukirchen-Vluyn"
  },
  {
    "lat": 52.48,
    "lon": 13.45,
    "name": "Neukölln"
  },
  {
    "lat": 49.28,
    "lon": 11.46,
    "name": "Neumarkt in der Oberpfalz"
  },
  {
    "lat": 54.07,
    "lon": 9.98,
    "name": "Neumünster, Holstein"
  },
  {
    "lat": 49.35,
    "lon": 7.18,
    "name": "Neunkirchen / Saar"
  },
  {
    "lat": 50.87,
    "lon": 7.33,
    "name": "Neunkirchen-Seelscheid"
  },
  {
    "lat": 52.92,
    "lon": 12.8,
    "name": "Neuruppin"
  },
  {
    "lat": 48.4,
    "lon": 10.83,
    "name": "Neusäß"
  },
  {
    "lat": 51.2,
    "lon": 6.69,
    "name": "Neuss"
  },
  {
    "lat": 52.5,
    "lon": 9.45,
    "name": "Neustadt am Rübenberge"
  },
  {
    "lat": 49.57,
    "lon": 10.47,
    "name": "Neustadt an der Aisch-Bad Windsheim"
  },
  {
    "lat": 49.36,
    "lon": 8.14,
    "name": "Neustadt an der Weinstraße"
  },
  {
    "lat": 53.36,
    "lon": 13.07,
    "name": "Neustrelitz"
  },
  {
    "lat": 50.56,
    "lon": 7.48,
    "name": "Neuwied"
  },
  {
    "lat": 50.82,
    "lon": 7.03,
    "name": "Niederkassel, Rhein"
  },
  {
    "lat": 52.58,
    "lon": 13.4,
    "name": "Niederschönhausen"
  },
  {
    "lat": 52.65,
    "lon": 9.24,
    "name": "Nienburg (Weser)"
  },
  {
    "lat": 50.58,
    "lon": 6.57,
    "name": "Nippes"
  },
  {
    "lat": 53.6,
    "lon": 7.19,
    "name": "Norden, Ostfriesland"
  },
  {
    "lat": 53.5,
    "lon": 8.49,
    "name": "Nordenham"
  },
  {
    "lat": 53.67,
    "lon": 9.99,
    "name": "Norderstedt"
  },
  {
    "lat": 54.64,
    "lon": 8.72,
    "name": "Nordfriesland"
  },
  {
    "lat": 51.5,
    "lon": 10.79,
    "name": "Nordhausen, Thüringen"
  },
  {
    "lat": 52.43,
    "lon": 7.07,
    "name": "Nordhorn"
  },
  {
    "lat": 51.7,
    "lon": 10,
    "name": "Northeim"
  },
  {
    "lat": 51.93,
    "lon": 7.36,
    "name": "Nottuln"
  },
  {
    "lat": 48.63,
    "lon": 9.35,
    "name": "Nürtingen"
  },
  {
    "lat": 51.5,
    "lon": 6.85,
    "name": "Oberhausen"
  },
  {
    "lat": 48.53,
    "lon": 8.08,
    "name": "Oberkirch (Baden)"
  },
  {
    "lat": 50.08,
    "lon": 8.85,
    "name": "Obertshausen"
  },
  {
    "lat": 50.2,
    "lon": 8.58,
    "name": "Oberursel (Taunus)"
  },
  {
    "lat": 49.68,
    "lon": 8.97,
    "name": "Odenwaldkreis"
  },
  {
    "lat": 51.83,
    "lon": 8.15,
    "name": "Oelde, Westfalen"
  },
  {
    "lat": 51.64,
    "lon": 7.26,
    "name": "Oer-Erkenschwick"
  },
  {
    "lat": 50.04,
    "lon": 8.82,
    "name": "Offenbach"
  },
  {
    "lat": 50.1,
    "lon": 8.77,
    "name": "Offenbach am Main"
  },
  {
    "lat": 48.48,
    "lon": 7.93,
    "name": "Offenburg"
  },
  {
    "lat": 49.2,
    "lon": 9.5,
    "name": "Öhringen"
  },
  {
    "lat": 48.2,
    "lon": 11.33,
    "name": "Olching"
  },
  {
    "lat": 53.15,
    "lon": 8.21,
    "name": "Oldenburg in Oldenburg"
  },
  {
    "lat": 51.03,
    "lon": 7.85,
    "name": "Olpe, Biggesee"
  },
  {
    "lat": 52.75,
    "lon": 13.24,
    "name": "Oranienburg"
  },
  {
    "lat": 52.28,
    "lon": 8.04,
    "name": "Osnabrück"
  },
  {
    "lat": 53.23,
    "lon": 8.78,
    "name": "Osterholz-Scharmbeck"
  },
  {
    "lat": 51.73,
    "lon": 10.26,
    "name": "Osterode am Harz"
  },
  {
    "lat": 48.72,
    "lon": 9.27,
    "name": "Ostfildern"
  },
  {
    "lat": 54.18,
    "lon": 10.85,
    "name": "Ostholstein"
  },
  {
    "lat": 53.4,
    "lon": 8.5,
    "name": "Östliche Vorstadt"
  },
  {
    "lat": 53.01,
    "lon": 12.64,
    "name": "Ostprignitz-Ruppin"
  },
  {
    "lat": 50.95,
    "lon": 7.3,
    "name": "Overath, Bergisches Land"
  },
  {
    "lat": 51.72,
    "lon": 8.76,
    "name": "Paderborn"
  },
  {
    "lat": 52.57,
    "lon": 13.41,
    "name": "Pankow"
  },
  {
    "lat": 53.08,
    "lon": 7.42,
    "name": "Papenburg"
  },
  {
    "lat": 48.57,
    "lon": 13.45,
    "name": "Passau"
  },
  {
    "lat": 52.32,
    "lon": 10.24,
    "name": "Peine"
  },
  {
    "lat": 52.37,
    "lon": 8.96,
    "name": "Petershagen (Weser)"
  },
  {
    "lat": 48.53,
    "lon": 11.52,
    "name": "Pfaffenhofen an der Ilm"
  },
  {
    "lat": 48.88,
    "lon": 8.7,
    "name": "Pforzheim"
  },
  {
    "lat": 49.81,
    "lon": 8.61,
    "name": "Pfungstadt"
  },
  {
    "lat": 53.66,
    "lon": 9.8,
    "name": "Pinneberg"
  },
  {
    "lat": 49.2,
    "lon": 7.6,
    "name": "Pirmasens"
  },
  {
    "lat": 50.95,
    "lon": 13.94,
    "name": "Pirna"
  },
  {
    "lat": 50.5,
    "lon": 12.13,
    "name": "Plauen, Vogtland"
  },
  {
    "lat": 51.21,
    "lon": 7.87,
    "name": "Plettenberg"
  },
  {
    "lat": 54.16,
    "lon": 10.41,
    "name": "Plön"
  },
  {
    "lat": 52.24,
    "lon": 8.92,
    "name": "Porta Westfalica"
  },
  {
    "lat": 52.39,
    "lon": 13.07,
    "name": "Potsdam"
  },
  {
    "lat": 53.32,
    "lon": 13.86,
    "name": "Prenzlau"
  },
  {
    "lat": 52.54,
    "lon": 13.42,
    "name": "Prenzlauer Berg"
  },
  {
    "lat": 53.08,
    "lon": 12.02,
    "name": "Prignitz"
  },
  {
    "lat": 51,
    "lon": 6.8,
    "name": "Pulheim"
  },
  {
    "lat": 49.28,
    "lon": 6.88,
    "name": "Püttlingen"
  },
  {
    "lat": 51.79,
    "lon": 11.14,
    "name": "Quedlinburg"
  },
  {
    "lat": 53.73,
    "lon": 9.9,
    "name": "Quickborn, Kreis Pinneberg"
  },
  {
    "lat": 51.11,
    "lon": 13.65,
    "name": "Radebeul"
  },
  {
    "lat": 51.2,
    "lon": 7.36,
    "name": "Radevormwald"
  },
  {
    "lat": 47.73,
    "lon": 8.97,
    "name": "Radolfzell am Bodensee"
  },
  {
    "lat": 48.85,
    "lon": 8.2,
    "name": "Rastatt"
  },
  {
    "lat": 53.25,
    "lon": 8.2,
    "name": "Rastede"
  },
  {
    "lat": 52.6,
    "lon": 12.34,
    "name": "Rathenow"
  },
  {
    "lat": 51.3,
    "lon": 6.84,
    "name": "Ratingen"
  },
  {
    "lat": 47.78,
    "lon": 9.61,
    "name": "Ravensburg (Württemberg)"
  },
  {
    "lat": 51.59,
    "lon": 7.21,
    "name": "Recklinghausen"
  },
  {
    "lat": 51.77,
    "lon": 6.4,
    "name": "Rees"
  },
  {
    "lat": 49.02,
    "lon": 12.1,
    "name": "Regensburg"
  },
  {
    "lat": 50.62,
    "lon": 12.3,
    "name": "Reichenbach im Vogtland"
  },
  {
    "lat": 50.95,
    "lon": 7.7,
    "name": "Reichshof"
  },
  {
    "lat": 53.51,
    "lon": 10.25,
    "name": "Reinbek"
  },
  {
    "lat": 52.57,
    "lon": 13.33,
    "name": "Reinickendorf"
  },
  {
    "lat": 51.18,
    "lon": 7.2,
    "name": "Remscheid"
  },
  {
    "lat": 48.87,
    "lon": 9.28,
    "name": "Remseck am Neckar"
  },
  {
    "lat": 54.3,
    "lon": 9.67,
    "name": "Rendsburg"
  },
  {
    "lat": 54.28,
    "lon": 9.79,
    "name": "Rendsburg-Eckernförde"
  },
  {
    "lat": 48.48,
    "lon": 9.22,
    "name": "Reutlingen"
  },
  {
    "lat": 51.85,
    "lon": 8.3,
    "name": "Rheda-Wiedenbrück"
  },
  {
    "lat": 50.02,
    "lon": 7.49,
    "name": "Rhein-Hunsrück-Kreis"
  },
  {
    "lat": 50.27,
    "lon": 7.86,
    "name": "Rhein-Lahn-Kreis"
  },
  {
    "lat": 49.45,
    "lon": 8.34,
    "name": "Rhein-Pfalz-Kreis"
  },
  {
    "lat": 50.63,
    "lon": 6.95,
    "name": "Rheinbach"
  },
  {
    "lat": 51.55,
    "lon": 6.59,
    "name": "Rheinberg"
  },
  {
    "lat": 52.28,
    "lon": 7.44,
    "name": "Rheine"
  },
  {
    "lat": 47.57,
    "lon": 7.8,
    "name": "Rheinfelden (Baden)"
  },
  {
    "lat": 50.12,
    "lon": 8.09,
    "name": "Rheingau-Taunus-Kreis"
  },
  {
    "lat": 48.97,
    "lon": 8.29,
    "name": "Rheinstetten (Baden)"
  },
  {
    "lat": 49.85,
    "lon": 8.48,
    "name": "Riedstadt"
  },
  {
    "lat": 51.31,
    "lon": 13.29,
    "name": "Riesa"
  },
  {
    "lat": 51.82,
    "lon": 8.43,
    "name": "Rietberg"
  },
  {
    "lat": 52.2,
    "lon": 9.08,
    "name": "Rinteln"
  },
  {
    "lat": 50.88,
    "lon": 6.91,
    "name": "Rodenkirchen"
  },
  {
    "lat": 49.99,
    "lon": 8.82,
    "name": "Rödermark"
  },
  {
    "lat": 50.02,
    "lon": 8.88,
    "name": "Rodgau"
  },
  {
    "lat": 52.32,
    "lon": 9.65,
    "name": "Ronnenberg"
  },
  {
    "lat": 47.85,
    "lon": 12.13,
    "name": "Rosenheim, Oberbayern"
  },
  {
    "lat": 50.9,
    "lon": 7.2,
    "name": "Rösrath"
  },
  {
    "lat": 53.11,
    "lon": 9.4,
    "name": "Rotenburg an der Wümme"
  },
  {
    "lat": 49.24,
    "lon": 11.09,
    "name": "Roth, Mittelfranken"
  },
  {
    "lat": 48.47,
    "lon": 8.93,
    "name": "Rottenburg am Neckar"
  },
  {
    "lat": 48.17,
    "lon": 8.62,
    "name": "Rottweil"
  },
  {
    "lat": 50.72,
    "lon": 11.33,
    "name": "Rudolstadt"
  },
  {
    "lat": 52.42,
    "lon": 13.5,
    "name": "Rudow"
  },
  {
    "lat": 49.99,
    "lon": 8.43,
    "name": "Rüsselsheim"
  },
  {
    "lat": 50.65,
    "lon": 11.37,
    "name": "Saalfeld / Saale"
  },
  {
    "lat": 49.23,
    "lon": 7,
    "name": "Saarbrücken"
  },
  {
    "lat": 49.32,
    "lon": 6.75,
    "name": "Saarlouis"
  },
  {
    "lat": 52.15,
    "lon": 10.34,
    "name": "Salzgitter"
  },
  {
    "lat": 51.67,
    "lon": 8.6,
    "name": "Salzkotten"
  },
  {
    "lat": 51.47,
    "lon": 11.3,
    "name": "Sangerhausen"
  },
  {
    "lat": 50.77,
    "lon": 7.18,
    "name": "Sankt Augustin"
  },
  {
    "lat": 49.28,
    "lon": 7.12,
    "name": "Sankt Ingbert"
  },
  {
    "lat": 51.32,
    "lon": 6.48,
    "name": "Sankt Tönis"
  },
  {
    "lat": 49.47,
    "lon": 7.17,
    "name": "Sankt Wendel"
  },
  {
    "lat": 54.52,
    "lon": 9.57,
    "name": "Schleswig"
  },
  {
    "lat": 54.63,
    "lon": 9.56,
    "name": "Schleswig-Flensburg"
  },
  {
    "lat": 51.9,
    "lon": 8.62,
    "name": "Schloß Holte-Stukenbrock, Stadt Gütersloh"
  },
  {
    "lat": 51.15,
    "lon": 8.3,
    "name": "Schmallenberg"
  },
  {
    "lat": 52.02,
    "lon": 11.75,
    "name": "Schönebeck (Elbe)"
  },
  {
    "lat": 52.48,
    "lon": 13.35,
    "name": "Schöneberg"
  },
  {
    "lat": 48.8,
    "lon": 9.53,
    "name": "Schorndorf (Württemberg)"
  },
  {
    "lat": 53.54,
    "lon": 7.96,
    "name": "Schortens"
  },
  {
    "lat": 49.33,
    "lon": 11.03,
    "name": "Schwabach"
  },
  {
    "lat": 48.8,
    "lon": 9.78,
    "name": "Schwäbisch Gmünd"
  },
  {
    "lat": 49.11,
    "lon": 9.73,
    "name": "Schwäbisch Hall"
  },
  {
    "lat": 51.03,
    "lon": 9.37,
    "name": "Schwalm-Eder-Kreis"
  },
  {
    "lat": 49.33,
    "lon": 12.11,
    "name": "Schwandorf, Bayern"
  },
  {
    "lat": 53.07,
    "lon": 14.27,
    "name": "Schwedt / Oder"
  },
  {
    "lat": 50.05,
    "lon": 10.23,
    "name": "Schweinfurt"
  },
  {
    "lat": 51.29,
    "lon": 7.29,
    "name": "Schwelm"
  },
  {
    "lat": 53.63,
    "lon": 11.41,
    "name": "Schwerin, Mecklenburg"
  },
  {
    "lat": 51.45,
    "lon": 7.57,
    "name": "Schwerte"
  },
  {
    "lat": 49.38,
    "lon": 8.58,
    "name": "Schwetzingen"
  },
  {
    "lat": 52.4,
    "lon": 9.59,
    "name": "Seelze"
  },
  {
    "lat": 51.89,
    "lon": 10.18,
    "name": "Seesen, Harz"
  },
  {
    "lat": 53.38,
    "lon": 10.04,
    "name": "Seevetal"
  },
  {
    "lat": 53.92,
    "lon": 10.16,
    "name": "Segeberg"
  },
  {
    "lat": 52.32,
    "lon": 9.97,
    "name": "Sehnde"
  },
  {
    "lat": 50.05,
    "lon": 8.98,
    "name": "Seligenstadt, Hessen"
  },
  {
    "lat": 51.7,
    "lon": 7.47,
    "name": "Selm"
  },
  {
    "lat": 48.32,
    "lon": 10.07,
    "name": "Senden (Iller)"
  },
  {
    "lat": 51.86,
    "lon": 7.48,
    "name": "Senden, Westfalen"
  },
  {
    "lat": 50.8,
    "lon": 7.2,
    "name": "Siegburg"
  },
  {
    "lat": 50.87,
    "lon": 8.03,
    "name": "Siegen"
  },
  {
    "lat": 48.7,
    "lon": 9.02,
    "name": "Sindelfingen"
  },
  {
    "lat": 47.77,
    "lon": 8.83,
    "name": "Singen (Hohentwiel)"
  },
  {
    "lat": 49.26,
    "lon": 8.88,
    "name": "Sinsheim (Elsenz)"
  },
  {
    "lat": 51.57,
    "lon": 8.11,
    "name": "Soest, Westfalen"
  },
  {
    "lat": 51.17,
    "lon": 7.05,
    "name": "Solingen"
  },
  {
    "lat": 52.98,
    "lon": 9.84,
    "name": "Soltau"
  },
  {
    "lat": 51.15,
    "lon": 11.1,
    "name": "Sömmerda"
  },
  {
    "lat": 51.37,
    "lon": 10.87,
    "name": "Sondershausen, Thüringen"
  },
  {
    "lat": 50.35,
    "lon": 11.17,
    "name": "Sonneberg, Thüringen"
  },
  {
    "lat": 47.52,
    "lon": 10.28,
    "name": "Sonthofen, Oberallgäu"
  },
  {
    "lat": 52.55,
    "lon": 13.2,
    "name": "Spandau"
  },
  {
    "lat": 49.33,
    "lon": 8.43,
    "name": "Speyer"
  },
  {
    "lat": 51.57,
    "lon": 14.38,
    "name": "Spremberg, Niederlausitz"
  },
  {
    "lat": 52.21,
    "lon": 9.55,
    "name": "Springe, Deister"
  },
  {
    "lat": 51.36,
    "lon": 7.25,
    "name": "Sprockhövel"
  },
  {
    "lat": 52.53,
    "lon": 13.14,
    "name": "Staaken"
  },
  {
    "lat": 53.6,
    "lon": 9.47,
    "name": "Stade, Niederelbe"
  },
  {
    "lat": 50.83,
    "lon": 9.02,
    "name": "Stadtallendorf"
  },
  {
    "lat": 52.31,
    "lon": 9.21,
    "name": "Stadthagen"
  },
  {
    "lat": 51.99,
    "lon": 6.91,
    "name": "Stadtlohn"
  },
  {
    "lat": 48,
    "lon": 11.35,
    "name": "Starnberg"
  },
  {
    "lat": 51.86,
    "lon": 11.58,
    "name": "Staßfurt"
  },
  {
    "lat": 52.46,
    "lon": 13.33,
    "name": "Steglitz"
  },
  {
    "lat": 52.44,
    "lon": 13.23,
    "name": "Steglitz-Zehlendorf"
  },
  {
    "lat": 53.94,
    "lon": 9.52,
    "name": "Steinburg"
  },
  {
    "lat": 52.15,
    "lon": 7.34,
    "name": "Steinfurt, Westfalen"
  },
  {
    "lat": 52.6,
    "lon": 11.85,
    "name": "Stendal"
  },
  {
    "lat": 50.77,
    "lon": 6.23,
    "name": "Stolberg (Rheinland)"
  },
  {
    "lat": 53.72,
    "lon": 10.36,
    "name": "Stormarn"
  },
  {
    "lat": 54.3,
    "lon": 13.09,
    "name": "Stralsund"
  },
  {
    "lat": 48.88,
    "lon": 12.57,
    "name": "Straubing"
  },
  {
    "lat": 52.57,
    "lon": 13.88,
    "name": "Strausberg"
  },
  {
    "lat": 53.03,
    "lon": 8.74,
    "name": "Stuhr"
  },
  {
    "lat": 49.1,
    "lon": 8.49,
    "name": "Stutensee"
  },
  {
    "lat": 49.19,
    "lon": 8.06,
    "name": "Südliche Weinstraße"
  },
  {
    "lat": 49.22,
    "lon": 7.62,
    "name": "Südwestpfalz"
  },
  {
    "lat": 50.6,
    "lon": 10.7,
    "name": "Suhl"
  },
  {
    "lat": 49.5,
    "lon": 11.75,
    "name": "Sulzbach-Rosenberg"
  },
  {
    "lat": 51.32,
    "lon": 8,
    "name": "Sundern (Sauerland)"
  },
  {
    "lat": 52.91,
    "lon": 8.82,
    "name": "Syke"
  },
  {
    "lat": 50.15,
    "lon": 8.15,
    "name": "Taunusstein"
  },
  {
    "lat": 52.58,
    "lon": 13.28,
    "name": "Tegel"
  },
  {
    "lat": 52.47,
    "lon": 13.38,
    "name": "Tempelhof"
  },
  {
    "lat": 52.45,
    "lon": 13.39,
    "name": "Tempelhof-Schöneberg"
  },
  {
    "lat": 51.33,
    "lon": 6.49,
    "name": "Tönisvorst"
  },
  {
    "lat": 47.97,
    "lon": 12.6,
    "name": "Traunreut"
  },
  {
    "lat": 52.45,
    "lon": 13.57,
    "name": "Treptow-Köpenick"
  },
  {
    "lat": 49.75,
    "lon": 6.63,
    "name": "Trier"
  },
  {
    "lat": 49.7,
    "lon": 6.7,
    "name": "Trier-Saarburg"
  },
  {
    "lat": 50.82,
    "lon": 7.17,
    "name": "Troisdorf"
  },
  {
    "lat": 48.53,
    "lon": 9.05,
    "name": "Tübingen"
  },
  {
    "lat": 47.98,
    "lon": 8.82,
    "name": "Tuttlingen"
  },
  {
    "lat": 50.93,
    "lon": 6.12,
    "name": "Übach-Palenberg"
  },
  {
    "lat": 47.77,
    "lon": 9.17,
    "name": "Überlingen (Bodensee)"
  },
  {
    "lat": 52.97,
    "lon": 10.56,
    "name": "Uelzen, Lüneburger Heide"
  },
  {
    "lat": 52.46,
    "lon": 10.2,
    "name": "Uetze"
  },
  {
    "lat": 51.54,
    "lon": 7.69,
    "name": "Unna"
  },
  {
    "lat": 48.05,
    "lon": 11.63,
    "name": "Unterhaching"
  },
  {
    "lat": 48.28,
    "lon": 11.57,
    "name": "Unterschleißheim"
  },
  {
    "lat": 48.93,
    "lon": 8.97,
    "name": "Vaihingen an der Enz"
  },
  {
    "lat": 53.39,
    "lon": 8.12,
    "name": "Varel, Jadebusen"
  },
  {
    "lat": 48.12,
    "lon": 11.78,
    "name": "Vaterstetten"
  },
  {
    "lat": 52.73,
    "lon": 8.28,
    "name": "Vechta"
  },
  {
    "lat": 51.34,
    "lon": 7.04,
    "name": "Velbert"
  },
  {
    "lat": 51.34,
    "lon": 7.05,
    "name": "Velbert-Mitte"
  },
  {
    "lat": 52.93,
    "lon": 9.24,
    "name": "Verden (Aller)"
  },
  {
    "lat": 51.88,
    "lon": 8.5,
    "name": "Verl"
  },
  {
    "lat": 52.04,
    "lon": 8.15,
    "name": "Versmold"
  },
  {
    "lat": 49.54,
    "lon": 8.58,
    "name": "Viernheim"
  },
  {
    "lat": 51.26,
    "lon": 6.4,
    "name": "Viersen"
  },
  {
    "lat": 48.07,
    "lon": 8.45,
    "name": "Villingen-Schwenningen"
  },
  {
    "lat": 52.16,
    "lon": 8.86,
    "name": "Vlotho"
  },
  {
    "lat": 51.6,
    "lon": 6.68,
    "name": "Voerde (Niederrhein)"
  },
  {
    "lat": 50.64,
    "lon": 9.26,
    "name": "Vogelsbergkreis"
  },
  {
    "lat": 49.25,
    "lon": 6.85,
    "name": "Völklingen"
  },
  {
    "lat": 54.09,
    "lon": 13.39,
    "name": "Vorpommern-Greifswald"
  },
  {
    "lat": 54.35,
    "lon": 13.36,
    "name": "Vorpommern-Rügen"
  },
  {
    "lat": 52.04,
    "lon": 6.82,
    "name": "Vreden"
  },
  {
    "lat": 50.24,
    "lon": 6.8,
    "name": "Vulkaneifel"
  },
  {
    "lat": 49.24,
    "lon": 8.52,
    "name": "Waghäusel"
  },
  {
    "lat": 48.83,
    "lon": 9.3,
    "name": "Waiblingen (Rems)"
  },
  {
    "lat": 51.14,
    "lon": 8.84,
    "name": "Waldeck-Frankenberg"
  },
  {
    "lat": 48.1,
    "lon": 7.97,
    "name": "Waldkirch (Breisgau)"
  },
  {
    "lat": 48.22,
    "lon": 12.4,
    "name": "Waldkraiburg"
  },
  {
    "lat": 47.62,
    "lon": 8.22,
    "name": "Waldshut-Tiengen"
  },
  {
    "lat": 52.35,
    "lon": 8.01,
    "name": "Wallenhorst"
  },
  {
    "lat": 52.86,
    "lon": 9.59,
    "name": "Walsrode"
  },
  {
    "lat": 51.62,
    "lon": 7.4,
    "name": "Waltrop"
  },
  {
    "lat": 53.58,
    "lon": 10.08,
    "name": "Wandsbek"
  },
  {
    "lat": 47.68,
    "lon": 9.83,
    "name": "Wangen im Allgäu"
  },
  {
    "lat": 51.49,
    "lon": 9.15,
    "name": "Warburg, Westfalen"
  },
  {
    "lat": 53.52,
    "lon": 12.68,
    "name": "Waren (Müritz)"
  },
  {
    "lat": 51.95,
    "lon": 7.99,
    "name": "Warendorf"
  },
  {
    "lat": 51.45,
    "lon": 8.36,
    "name": "Warstein"
  },
  {
    "lat": 52.55,
    "lon": 13.36,
    "name": "Wedding"
  },
  {
    "lat": 53.58,
    "lon": 9.7,
    "name": "Wedel"
  },
  {
    "lat": 52.55,
    "lon": 9.75,
    "name": "Wedemark"
  },
  {
    "lat": 51.15,
    "lon": 6.27,
    "name": "Wegberg"
  },
  {
    "lat": 49.68,
    "lon": 12.16,
    "name": "Weiden in der Oberpfalz"
  },
  {
    "lat": 47.58,
    "lon": 7.63,
    "name": "Weil am Rhein"
  },
  {
    "lat": 47.83,
    "lon": 11.15,
    "name": "Weilheim in Oberbayern"
  },
  {
    "lat": 50.98,
    "lon": 11.32,
    "name": "Weimar, Thüringen"
  },
  {
    "lat": 47.81,
    "lon": 9.64,
    "name": "Weingarten (Württemberg)"
  },
  {
    "lat": 49.55,
    "lon": 8.67,
    "name": "Weinheim (Bergstraße)"
  },
  {
    "lat": 48.82,
    "lon": 9.38,
    "name": "Weinstadt"
  },
  {
    "lat": 51.2,
    "lon": 11.97,
    "name": "Weißenfels, Saale"
  },
  {
    "lat": 52.55,
    "lon": 13.47,
    "name": "Weißensee"
  },
  {
    "lat": 51.5,
    "lon": 14.64,
    "name": "Weißwasser / Oberlausitz"
  },
  {
    "lat": 49.91,
    "lon": 8.6,
    "name": "Weiterstadt"
  },
  {
    "lat": 50.73,
    "lon": 12.38,
    "name": "Werdau, Sachsen"
  },
  {
    "lat": 52.37,
    "lon": 12.93,
    "name": "Werder (Havel)"
  },
  {
    "lat": 51.26,
    "lon": 7.76,
    "name": "Werdohl"
  },
  {
    "lat": 51.56,
    "lon": 7.91,
    "name": "Werl"
  },
  {
    "lat": 51.14,
    "lon": 7.22,
    "name": "Wermelskirchen"
  },
  {
    "lat": 51.67,
    "lon": 7.63,
    "name": "Werne"
  },
  {
    "lat": 51.84,
    "lon": 10.78,
    "name": "Wernigerode"
  },
  {
    "lat": 51.19,
    "lon": 9.97,
    "name": "Werra-Meißner-Kreis"
  },
  {
    "lat": 49.76,
    "lon": 9.51,
    "name": "Wertheim am Main"
  },
  {
    "lat": 51.66,
    "lon": 6.63,
    "name": "Wesel am Rhein"
  },
  {
    "lat": 50.83,
    "lon": 6.98,
    "name": "Wesseling, Rheinland"
  },
  {
    "lat": 52.51,
    "lon": 13.27,
    "name": "Westend"
  },
  {
    "lat": 53.26,
    "lon": 7.93,
    "name": "Westerstede"
  },
  {
    "lat": 50.56,
    "lon": 7.87,
    "name": "Westerwaldkreis"
  },
  {
    "lat": 53.13,
    "lon": 7.46,
    "name": "Westoverledingen"
  },
  {
    "lat": 51.39,
    "lon": 7.39,
    "name": "Wetter an der Ruhr"
  },
  {
    "lat": 50.34,
    "lon": 8.89,
    "name": "Wetteraukreis"
  },
  {
    "lat": 50.55,
    "lon": 8.5,
    "name": "Wetzlar"
  },
  {
    "lat": 52.98,
    "lon": 8.85,
    "name": "Weyhe bei Bremen"
  },
  {
    "lat": 50.95,
    "lon": 7.53,
    "name": "Wiehl"
  },
  {
    "lat": 50.08,
    "lon": 8.25,
    "name": "Wiesbaden"
  },
  {
    "lat": 49.3,
    "lon": 8.7,
    "name": "Wiesloch"
  },
  {
    "lat": 53.53,
    "lon": 8.11,
    "name": "Wilhelmshaven"
  },
  {
    "lat": 51.26,
    "lon": 6.54,
    "name": "Willich"
  },
  {
    "lat": 52.48,
    "lon": 13.32,
    "name": "Wilmersdorf"
  },
  {
    "lat": 50.82,
    "lon": 8.1,
    "name": "Wilnsdorf"
  },
  {
    "lat": 50.81,
    "lon": 7.57,
    "name": "Windeck, Sieg"
  },
  {
    "lat": 48.88,
    "lon": 9.4,
    "name": "Winnenden (Württemberg)"
  },
  {
    "lat": 53.37,
    "lon": 10.21,
    "name": "Winsen (Luhe)"
  },
  {
    "lat": 51.12,
    "lon": 7.4,
    "name": "Wipperfürth"
  },
  {
    "lat": 53.89,
    "lon": 11.46,
    "name": "Wismar, Mecklenburg"
  },
  {
    "lat": 51.44,
    "lon": 7.35,
    "name": "Witten"
  },
  {
    "lat": 52.6,
    "lon": 13.33,
    "name": "Wittenau"
  },
  {
    "lat": 53,
    "lon": 11.75,
    "name": "Wittenberge, Prignitz"
  },
  {
    "lat": 53.59,
    "lon": 7.76,
    "name": "Wittmund"
  },
  {
    "lat": 51.66,
    "lon": 12.28,
    "name": "Wolfen, Anhalt"
  },
  {
    "lat": 52.16,
    "lon": 10.54,
    "name": "Wolfenbüttel, Niedersachsen"
  },
  {
    "lat": 52.44,
    "lon": 10.77,
    "name": "Wolfsburg"
  },
  {
    "lat": 49.64,
    "lon": 8.36,
    "name": "Worms"
  },
  {
    "lat": 51.28,
    "lon": 7.03,
    "name": "Wülfrath"
  },
  {
    "lat": 52.42,
    "lon": 9.43,
    "name": "Wunstorf"
  },
  {
    "lat": 51.26,
    "lon": 7.16,
    "name": "Wuppertal"
  },
  {
    "lat": 50.82,
    "lon": 6.13,
    "name": "Würselen"
  },
  {
    "lat": 49.79,
    "lon": 9.94,
    "name": "Würzburg"
  },
  {
    "lat": 51.66,
    "lon": 6.45,
    "name": "Xanten"
  },
  {
    "lat": 52.44,
    "lon": 13.26,
    "name": "Zehlendorf"
  },
  {
    "lat": 51.05,
    "lon": 12.15,
    "name": "Zeitz, Elster"
  },
  {
    "lat": 49.45,
    "lon": 10.95,
    "name": "Zirndorf, Mittelfranken"
  },
  {
    "lat": 50.9,
    "lon": 14.81,
    "name": "Zittau"
  },
  {
    "lat": 50.7,
    "lon": 6.65,
    "name": "Zülpich"
  },
  {
    "lat": 49.25,
    "lon": 7.37,
    "name": "Zweibrücken, Pfalz"
  },
  {
    "lat": 50.73,
    "lon": 12.5,
    "name": "Zwickau"
  }
]
