[
  {
    "accuweather": "dk/124594/minute-weather-forecast/124594",
    "country": "dk",
    "id": "aarhus",
    "lat": 56.15,
    "lon": 10.216667,
    "meteoblue_id": "Århus_dänemark_2624652",
    "meteoblue_src": "https://my.meteoblue.com/visimage/meteogram_web_hd?look=KILOMETER_PER_HOUR%2CCELSIUS%2CMILLIMETER&apikey=5838a18e295d&temperature=C&windspeed=kmh&precipitationamount=mm&winddirection=3char&city=%C3%85rhus&iso2=dk&lat=56.156700&lon=10.210800&asl=10&tz=Europe%2FCopenhagen&lang=de&sig=e5f20ffcd48cfbca5778b5c7b385e089",
    "name": "Aarhus"
  },
  {
    "accuweather": "de/ammersee/82211/minute-weather-forecast/2599630",
    "district": "by",
    "dwd_warncellid": 109188000,
    "id": "ammersee",
    "lat": 48.0,
    "lon": 11.116667,
    "meteoblue_id": "herrsching-am-ammersee_deutschland_2905604",
    "meteoblue_src": "https://my.meteoblue.com/visimage/meteogram_web_hd?look=KILOMETER_PER_HOUR%2CCELSIUS%2CMILLIMETER&apikey=5838a18e295d&temperature=C&windspeed=kmh&precipitationamount=mm&winddirection=3char&city=Herrsching+am+Ammersee&iso2=de&lat=47.998901&lon=11.176800&asl=551&tz=Europe%2FBerlin&lang=de&sig=fffd5401d822b43d589ef032a694a313",
    "name": "Ammersee",
    "windguru_s": 243,
    "windguru_uid": "wg_fwdg_243_3_1589997765794"
  },
  {
    "accuweather": "de/berlin/10178/minute-weather-forecast/178087",
    "district": "be",
    "dwd_warncellid": 111000000,
    "id": "berlin",
    "lat": 52.52,
    "lon": 13.405,
    "meteoblue_id": "berlin_deutschland_2950159",
    "meteoblue_src": "https://my.meteoblue.com/visimage/meteogram_web_hd?look=KILOMETER_PER_HOUR%2CCELSIUS%2CMILLIMETER&apikey=5838a18e295d&temperature=C&windspeed=kmh&precipitationamount=mm&winddirection=3char&city=Berlin&iso2=de&lat=52.524399&lon=13.410500&asl=74&tz=Europe%2FBerlin&lang=de&sig=746bd17297592ef3f64eed64e904a2d8",
    "name": "Berlin"
  },
  {
    "accuweather": "de/bremen/28195/minute-weather-forecast/167950",
    "district": "hb",
    "dwd_warncellid": 104011000,
    "id": "bremen",
    "lat": 53.075878,
    "lon": 8.807311,
    "meteoblue_id": "bremen_deutschland_2944388",
    "meteoblue_src": "https://my.meteoblue.com/visimage/meteogram_web_hd?look=KILOMETER_PER_HOUR%2CCELSIUS%2CMILLIMETER&apikey=5838a18e295d&temperature=C&windspeed=kmh&precipitationamount=mm&winddirection=3char&city=Bremen&iso2=de&lat=53.0758&lon=8.80717&asl=3&tz=Europe%2FBerlin&lang=de&sig=9586d131fdd3f85f45bbad488cc7aac9",
    "name": "Bremen"
  },
  {
    "accuweather": "de/böhmenkirch/89558/minute-weather-forecast/171896",
    "daswetter": "6823c1e09a17c26b7fa9bce8b601e68e",
    "district": "bw",
    "dwd_warncellid": 108117000,
    "id": "boehmenkirch",
    "lat": 48.684444,
    "lon": 9.933889,
    "meteoblue_id": "b%c3%b6hmenkirch_deutschland_2946950",
    "meteoblue_simple": true,
    "meteoblue_src": "https://my.meteoblue.com/visimage/meteogram_web_hd?look=KILOMETER_PER_HOUR%2CCELSIUS%2CMILLIMETER&apikey=5838a18e295d&temperature=C&windspeed=kmh&precipitationamount=mm&winddirection=3char&city=B%C3%B6hmenkirch&iso2=de&lat=48.683300&lon=9.933330&asl=693&tz=Europe%2FBerlin&lang=de&sig=a28dca9c3b23be9cc8a0d454a7555590",
    "name": "Böhmenkirch"
  },
  {
    "accuweather": "de/dortmund/44137/minute-weather-forecast/170370",
    "district": "nw",
    "dwd_warncellid": 105913000,
    "id": "dortmund",
    "lat": 51.516667,
    "lon": 7.466667,
    "meteoblue_id": "dortmund_deutschland_2935517",
    "meteoblue_src": "https://my.meteoblue.com/visimage/meteogram_web_hd?look=KILOMETER_PER_HOUR%2CCELSIUS%2CMILLIMETER&apikey=5838a18e295d&temperature=C&windspeed=kmh&precipitationamount=mm&winddirection=3char&city=Dortmund&iso2=de&lat=51.514900&lon=7.466000&asl=96&tz=Europe%2FBerlin&lang=de&sig=7bcba2c5fc2075f042405c6eca881624",
    "name": "Dortmund"
  },
  {
    "accuweather": "de/eckernförde/24340/minute-weather-forecast/171578",
    "district": "sh",
    "dwd_warncellid": 101058000,
    "id": "eckernfoerde",
    "lat": 54.473333,
    "lon": 9.832222,
    "meteoblue_id": "eckernf%c3%b6rde_deutschland_2933627",
    "meteoblue_src": "https://my.meteoblue.com/visimage/meteogram_web_hd?look=KILOMETER_PER_HOUR%2CCELSIUS%2CMILLIMETER&apikey=5838a18e295d&temperature=C&windspeed=kmh&precipitationamount=mm&winddirection=3char&city=Eckernf%C3%B6rde&iso2=de&lat=54.4685&lon=9.83824&asl=4&tz=Europe%2FBerlin&lang=de&sig=803e07d8818bfeb967cf8bb57a1b3b7f",
    "name": "Eckernförde",
    "windy_waves": true
  },
  {
    "accuweather": "de/frankfurt/60311/minute-weather-forecast/168720",
    "district": "he",
    "dwd_warncellid": 106412000,
    "id": "frankfurt",
    "lat": 50.116667,
    "lon": 8.683333,
    "meteoblue_id": "frankfurt-am-main_deutschland_2925533",
    "meteoblue_src": "https://my.meteoblue.com/visimage/meteogram_web_hd?look=KILOMETER_PER_HOUR%2CCELSIUS%2CMILLIMETER&apikey=5838a18e295d&temperature=C&windspeed=kmh&precipitationamount=mm&winddirection=3char&city=Frankfurt+am+Main&iso2=de&lat=50.115501&lon=8.684170&asl=113&tz=Europe%2FBerlin&lang=de&sig=4277526e53a305140d6bfeab6165001f",
    "name": "Frankfurt am Main"
  },
  {
    "accuweather": "de/freiburg-im-breisgau/79098/minute-weather-forecast/167209",
    "district": "bw",
    "dwd_warncellid": 108311000,
    "id": "freiburg",
    "lat": 47.9955553,
    "lon": 7.850821,
    "meteoblue_id": "freiburg-im-breisgau_deutschland_2925177",
    "meteoblue_src": "https://my.meteoblue.com/visimage/meteogram_web_hd?look=KILOMETER_PER_HOUR%2CCELSIUS%2CMILLIMETER&apikey=5838a18e295d&temperature=C&windspeed=kmh&precipitationamount=mm&winddirection=3char&city=Freiburg+im+Breisgau&iso2=de&lat=47.9959&lon=7.85222&asl=278&tz=Europe%2FBerlin&lang=de&sig=993957ca86458ff6abb9e80ff07f4281",
    "name": "Freiburg im Breisgau"
  },
  {
    "accuweather": "de/geislingen-an-der-steige/73312/minute-weather-forecast/171775",
    "district": "bw",
    "dwd_warncellid": 108117000,
    "id": "geislingen",
    "lat": 48.624444,
    "lon": 9.830556,
    "meteoblue_id": "geislingen-an-der-steige_deutschland_2921653",
    "meteoblue_src": "https://my.meteoblue.com/visimage/meteogram_web_hd?look=KILOMETER_PER_HOUR%2CCELSIUS%2CMILLIMETER&apikey=5838a18e295d&temperature=C&windspeed=kmh&precipitationamount=mm&winddirection=3char&city=Geislingen+an+der+Steige&iso2=de&lat=48.624199&lon=9.827360&asl=426&tz=Europe%2FBerlin&lang=de&sig=fac367a37d53be296c64678ef09ac0ab",
    "name": "Geislingen an der Steige"
  },
  {
    "accuweather": "de/göttingen/37073/minute-weather-forecast/169816",
    "district": "ni",
    "dwd_warncellid": 103159000,
    "id": "goettingen",
    "lat": 51.533889,
    "lon": 9.935556,
    "meteoblue_id": "g%c3%b6ttingen_deutschland_2918632",
    "meteoblue_src": "https://my.meteoblue.com/visimage/meteogram_web_hd?look=KILOMETER_PER_HOUR%2CCELSIUS%2CMILLIMETER&apikey=5838a18e295d&temperature=C&windspeed=kmh&precipitationamount=mm&winddirection=3char&city=G%C3%B6ttingen&iso2=de&lat=51.5344&lon=9.93228&asl=153&tz=Europe%2FBerlin&lang=de&sig=e626c1b39bf05d84fb1d3d1bbaadf2a0",
    "name": "Göttingen"
  },
  {
    "accuweather": "de/hamburg/20095/minute-weather-forecast/178556",
    "district": "hh",
    "dwd_warncellid": 102000000,
    "id": "hamburg",
    "lat": 53.565278,
    "lon": 10.001389,
    "meteoblue_id": "hamburg_deutschland_2911298",
    "meteoblue_src": "https://my.meteoblue.com/visimage/meteogram_web_hd?look=KILOMETER_PER_HOUR%2CCELSIUS%2CMILLIMETER&apikey=5838a18e295d&temperature=C&windspeed=kmh&precipitationamount=mm&winddirection=3char&city=Hamburg&iso2=de&lat=53.550701&lon=9.993020&asl=2&tz=Europe%2FBerlin&lang=de&sig=9da37d460e72ff65f429a0a21e07e00a",
    "name": "Hamburg"
  },
  {
    "accuweather": "de/hanover/30159/minute-weather-forecast/169824",
    "district": "ni",
    "dwd_warncellid": 103241000,
    "id": "hannover",
    "lat": 52.374444,
    "lon": 9.738611,
    "meteoblue_id": "hannover_deutschland_2910831",
    "meteoblue_src": "https://my.meteoblue.com/visimage/meteogram_web_hd?look=KILOMETER_PER_HOUR%2CCELSIUS%2CMILLIMETER&apikey=5838a18e295d&temperature=C&windspeed=kmh&precipitationamount=mm&winddirection=3char&city=Hannover&iso2=de&lat=52.3705&lon=9.73322&asl=57&tz=Europe%2FBerlin&lang=de&sig=9ce4185c6f23a375dce672a1d68df65c",
    "name": "Hannover"
  },
  {
    "accuweather": "de/immenstadt/87509/weather-forecast/167621",
    "district": "by",
    "dwd_warncellid": 109780000,
    "id": "immenstadt",
    "lat": 47.561389,
    "lon": 10.221111,
    "meteoblue_id": "immenstadt-im-allg%c3%a4u_deutschland_2896261",
    "meteoblue_src": "https://my.meteoblue.com/visimage/meteogram_web_hd?look=KILOMETER_PER_HOUR%2CCELSIUS%2CMILLIMETER&apikey=5838a18e295d&temperature=C&windspeed=kmh&precipitationamount=mm&winddirection=3char&city=Immenstadt+im+Allg%C3%A4u&iso2=de&lat=47.56&lon=10.2139&asl=733&tz=Europe%2FBerlin&lang=de&sig=587e316f72ad991661ca270a85749995",
    "name": "Immenstadt im Allgäu"
  },
  {
    "accuweather": "de/ingolstadt/85049/minute-weather-forecast/167555",
    "district": "by",
    "dwd_warncellid": 109161000,
    "id": "ingolstadt",
    "lat": 48.76415,
    "lon": 11.42434,
    "meteoblue_id": "ingolstadt_deutschland_2895992",
    "meteoblue_src": "https://my.meteoblue.com/visimage/meteogram_web_hd?look=KILOMETER_PER_HOUR%2CCELSIUS%2CMILLIMETER&apikey=5838a18e295d&temperature=C&windspeed=kmh&precipitationamount=mm&winddirection=3char&city=Ingolstadt&iso2=de&lat=48.7651&lon=11.4237&asl=379&tz=Europe%2FBerlin&lang=de&sig=a19a41572fa9657137946bd967b6f824",
    "name": "Ingolstadt, Donau"
  },
  {
    "accuweather": "de/landau/76829/minute-weather-forecast/174595",
    "district": "rp",
    "dwd_warncellid": 107313000,
    "id": "landau",
    "lat": 49.2,
    "lon": 8.116667,
    "meteoblue_id": "landau-in-der-pfalz_deutschland_2881646",
    "meteoblue_src": "https://my.meteoblue.com/visimage/meteogram_web_hd?look=KILOMETER_PER_HOUR%2CCELSIUS%2CMILLIMETER&apikey=5838a18e295d&temperature=C&windspeed=kmh&precipitationamount=mm&winddirection=3char&city=Landau+in+der+Pfalz&iso2=de&lat=49.198399&lon=8.116920&asl=144&tz=Europe%2FBerlin&lang=de&sig=0b60c1de828eabe40de97b318fff42e5",
    "name": "Landau in der Pfalz"
  },
  {
    "accuweather": "de/leipzig/04109/minute-weather-forecast/171240",
    "district": "sn",
    "dwd_warncellid": 114713000,
    "id": "leipzig",
    "lat": 51.341699,
    "lon": 12.2535538,
    "meteoblue_id": "leipzig_deutschland_2879139",
    "meteoblue_src": "https://my.meteoblue.com/visimage/meteogram_web_hd?look=KILOMETER_PER_HOUR%2CCELSIUS%2CMILLIMETER&apikey=5838a18e295d&temperature=C&windspeed=kmh&precipitationamount=mm&winddirection=3char&city=Leipzig&iso2=de&lat=51.339600&lon=12.371300&asl=116&tz=Europe%2FBerlin&lang=de&sig=7f7bc3acbbd55f7b8eb5cdb79ac15c6e",
    "name": "Leipzig"
  },
  {
    "accuweather": "de/leutenbach/71397/weather-forecast/167298",
    "district": "bw",
    "dwd_warncellid": 108119000,
    "id": "leutenbach",
    "lat": 48.89,
    "lon": 9.39,
    "meteoblue_id": "leutenbach_deutschland_2878313",
    "meteoblue_src": "https://my.meteoblue.com/visimage/meteogram_web_hd?look=KILOMETER_PER_HOUR%2CCELSIUS%2CMILLIMETER&apikey=5838a18e295d&temperature=C&windspeed=kmh&precipitationamount=mm&winddirection=3char&city=Leutenbach&iso2=de&lat=48.8879&lon=9.39267&asl=278&tz=Europe%2FBerlin&lang=de&sig=5197239bc6b5253d259479b5209836c4",
    "name": "Leutenbach (Württemberg)"
  },
  {
    "accuweather": "se/lund/314778/minute-weather-forecast/314778",
    "country": "se",
    "id": "lund",
    "lat": 55.703889,
    "lon": 13.195,
    "meteoblue_id": "lund_schweden_2693678",
    "meteoblue_src": "https://my.meteoblue.com/visimage/meteogram_web_hd?look=KILOMETER_PER_HOUR%2CCELSIUS%2CMILLIMETER&apikey=5838a18e295d&temperature=C&windspeed=kmh&precipitationamount=mm&winddirection=3char&city=Lund&iso2=se&lat=55.705799&lon=13.193200&asl=51&tz=Europe%2FStockholm&lang=de&sig=ca9669498fcc1c1b6608bb9728a36b51",
    "name": "Lund"
  },
  {
    "accuweather": "de/munich/80331/minute-weather-forecast/178086",
    "district": "by",
    "dwd_warncellid": 109162000,
    "id": "muenchen",
    "lat": 48.133333,
    "lon": 11.566667,
    "meteoblue_id": "m%c3%bcnchen_deutschland_2867714",
    "meteoblue_src": "https://my.meteoblue.com/visimage/meteogram_web_hd?look=KILOMETER_PER_HOUR%2CCELSIUS%2CMILLIMETER&apikey=5838a18e295d&temperature=C&windspeed=kmh&precipitationamount=mm&winddirection=3char&city=M%C3%BCnchen&iso2=de&lat=48.137402&lon=11.575500&asl=524&tz=Europe%2FBerlin&lang=de&sig=a5e68ab574603119132b6c5af72550e1",
    "name": "München"
  },
  {
    "accuweather": "de/nuremberg/90402/weather-forecast/167559",
    "district": "by",
    "dwd_warncellid": 109564000,
    "id": "nuernberg",
    "lat": 49.45,
    "lon": 11.083333,
    "meteoblue_id": "nürnberg_deutschland_2861650",
    "meteoblue_src": "https://my.meteoblue.com/visimage/meteogram_web_hd?look=KILOMETER_PER_HOUR%2CCELSIUS%2CMILLIMETER&apikey=5838a18e295d&temperature=C&windspeed=kmh&precipitationamount=mm&winddirection=3char&city=N%C3%BCrnberg&iso2=de&lat=49.454201&lon=11.077500&asl=300&tz=Europe%2FBerlin&lang=de&sig=0b691cf83cf03eea952869b6857f8a77",
    "name": "Nürnberg"
  },
  {
    "accuweather": "de/rostock/18055/minute-weather-forecast/169581",
    "district": "mv",
    "dwd_warncellid": 113003000,
    "id": "rostock",
    "lat": 54.08816,
    "lon": 12.13468,
    "meteoblue_id": "rostock_deutschland_2844588",
    "meteoblue_src": "https://my.meteoblue.com/visimage/meteogram_web_hd?look=KILOMETER_PER_HOUR%2CCELSIUS%2CMILLIMETER&apikey=5838a18e295d&temperature=C&windspeed=kmh&precipitationamount=mm&winddirection=3char&city=Rostock&iso2=de&lat=54.0887&lon=12.1405&asl=18&tz=Europe%2FBerlin&lang=de&sig=eaddc9df7c4f86505fd53a2024f2bdbe",
    "name": "Rostock"
  },
  {
    "accuweather": "de/senftenberg/01968/minute-weather-forecast/173217",
    "district": "bb",
    "dwd_warncellid": 112066000,
    "id": "senftenberg",
    "lat": 51.518889,
    "lon": 14.005556,
    "meteoblue_id": "senftenberg_deutschland_2833073",
    "meteoblue_src": "https://my.meteoblue.com/visimage/meteogram_web_hd?look=KILOMETER_PER_HOUR%2CCELSIUS%2CMILLIMETER&apikey=5838a18e295d&temperature=C&windspeed=kmh&precipitationamount=mm&winddirection=3char&city=Senftenberg&iso2=de&lat=51.5252&lon=14.0016&asl=104&tz=Europe%2FBerlin&lang=de&sig=8cf90774bb3c2bb049ed8f4e481d1b66",
    "name": "Senftenberg, Niederlausitz"
  },
  {
    "accuweather": "de/spitzingsee/83727/minute-weather-forecast/178049",
    "district": "by",
    "dwd_warncellid": 109182000,
    "id": "spitzingsee",
    "lat": 47.666111,
    "lon": 11.886667,
    "meteoblue_id": "spitzingsee_deutschland_3205568",
    "meteoblue_src": "https://my.meteoblue.com/visimage/meteogram_web_hd?look=KILOMETER_PER_HOUR%2CCELSIUS%2CMILLIMETER&apikey=5838a18e295d&temperature=C&windspeed=kmh&precipitationamount=mm&winddirection=3char&city=Spitzingsee&iso2=de&lat=47.661301&lon=11.887600&asl=1089&tz=Europe%2FBerlin&lang=de&sig=2324fe8c179c06c644210dcdf795b9f4",
    "name": "Spitzingsee",
    "windguru_s": 245930,
    "windguru_uid": "wg_fwdg_245930_3_1590655757107"
  },
  {
    "accuweather": "de/stuttgart/70173/minute-weather-forecast/167220",
    "district": "bw",
    "dwd_warncellid": 108111000,
    "id": "stuttgart",
    "lat": 48.782,
    "lon": 9.184,
    "meteoblue_id": "stuttgart_deutschland_2825297",
    "meteoblue_src": "https://my.meteoblue.com/visimage/meteogram_web_hd?look=KILOMETER_PER_HOUR%2CCELSIUS%2CMILLIMETER&apikey=5838a18e295d&temperature=C&windspeed=kmh&precipitationamount=mm&winddirection=3char&city=Stuttgart&iso2=de&lat=48.782299&lon=9.177020&asl=252&tz=Europe%2FBerlin&lang=de&sig=7ae31cd04b5523e9a2244a23a80cd8d7",
    "name": "Stuttgart"
  },
  {
    "accuweather": "de/ulm/89073/minute-weather-forecast/167216",
    "district": "bw",
    "dwd_warncellid": 108421000,
    "id": "ulm",
    "lat": 48.4,
    "lon": 9.983333,
    "meteoblue_id": "ulm_deutschland_2820256",
    "meteoblue_src": "https://my.meteoblue.com/visimage/meteogram_web_hd?look=KILOMETER_PER_HOUR%2CCELSIUS%2CMILLIMETER&apikey=5838a18e295d&temperature=C&windspeed=kmh&precipitationamount=mm&winddirection=3char&city=Ulm&iso2=de&lat=48.398399&lon=9.991550&asl=480&tz=Europe%2FBerlin&lang=de&sig=cb1bcf3809377a5a84a52273bf8c0153",
    "name": "Ulm (Donau)"
  }
]